NAME,COUNTRY,LATITUDE,LONGITUDE,ELEVATION,TYPE,POPULATION WITHIN 10KM,LARGEST YEAR,LARGEST VEI,LATEST YEAR,LATEST VEI
Acatenango,Guatemala,14.501,-90.876,3976,Stratovolcano(es),60730,1924,3,1972,1
Adams,United States,46.206,-121.49,3742,Stratovolcano,70,950,2,950,2
Adams Seamount,Undersea Features,-25.37,-129.27,-39,Submarine,0,-50,0,-50,0
Adatarayama,Japan,37.647,140.281,1728,Stratovolcano(es),3936,-590,3,1996,1
Agrigan,United States,18.77,145.67,965,Stratovolcano,0,1917,4,1917,4
Agua de Pau,Portugal,37.77,-25.47,947,Stratovolcano,17272,1563,5,1564,2
Aguilera,Chile,-50.33,-73.75,2546,Stratovolcano,0,-1250,5,-1250,5
Agung,Indonesia,-8.343,115.508,2995,Stratovolcano,76781,1963,5,1963,5
Ahyi,United States,20.42,145.03,-75,Submarine,0,2014,0,2014,0
Aira,Japan,31.593,130.657,1117,Caldera,113874,-8050,6,2017,1
Akademia Nauk,Russia,53.98,159.45,1180,Stratovolcano(es),3,1996,3,1996,3
Akan,Japan,43.384,144.013,1499,Caldera,2062,-50,4,2008,1
Akita-Komagatake,Japan,39.761,140.799,1637,Stratovolcano(es),3864,-7850,4,1970,2
Akita-Yakeyama,Japan,39.964,140.757,1366,Stratovolcano,721,1929,2,1997,1
Akutan,United States,54.134,-165.986,1303,Stratovolcano,24,340,5,1992,1
Alaid,Russia,50.861,155.565,2285,Stratovolcano,64,1981,4,2015,1
Alamagan,United States,17.6,145.83,744,Stratovolcano,0,870,4,870,4
Alayta,Ethiopia,12.888,40.573,1496,Shield,925,1915,2,1915,2
Alcedo,Ecuador,-0.43,-91.12,1130,Shield,290,1993,1,1993,1
Almolonga,Guatemala,14.797,-91.519,3173,Stratovolcano,287487,800,3,1818,2
Alney-Chashakondzha,Russia,56.7,159.65,2598,Stratovolcano,0,-650,3,-650,3
Alu-Dalafilla,Ethiopia,13.793,40.553,578,Fissure vent(s),9,2008,3,2008,3
Ambang,Indonesia,0.75,124.42,1795,Complex,46469,2005,1,2005,1
Ambrym,Vanuatu,-16.25,168.12,1334,Pyroclastic shield,186,50,6,2008,2
Amukta,United States,52.5,-171.252,1066,Stratovolcano,0,1963,3,1997,1
Anatahan,United States,16.35,145.67,790,Stratovolcano,0,2004,3,2007,2
Aniakchak,United States,56.88,-158.17,1341,Caldera,0,-1645,6,1931,4
Antillanca Group,Chile,-40.771,-72.153,1990,Stratovolcano(es),521,-230,5,-230,5
Antisana,Ecuador,-0.481,-78.141,5753,Stratovolcano,2220,1801,2,1801,2
Antuco,Chile,-37.406,-71.349,2979,Stratovolcano,474,1852,3,1869,2
Aoba,Vanuatu,-15.4,167.83,1496,Shield,1279,2005,2,2011,1
Aogashima,Japan,32.458,139.759,423,Stratovolcano,232,-600,4,1780,3
Apagado,Chile,-41.88,-72.58,1210,Pyroclastic cone,44,-590,4,-590,4
Apoyeque,Nicaragua,12.242,-86.342,518,Pyroclastic shield,116718,-50,6,-50,6
Ararat,Turkey,39.7,44.3,5165,Stratovolcano,1239,1840,3,1840,3
Ardoukoba,Djibouti,11.58,42.47,298,Fissure vent(s),2895,1978,1,1978,1
Arenal,Costa Rica,10.463,-84.703,1670,Stratovolcano,15643,1400,4,1968,3
Arenales,Chile,-47.2,-73.48,3437,Stratovolcano,0,1979,1,1979,1
Arhab,Yemen,15.63,44.08,3100,Volcanic field,284443,200,2,500,0
Arjuno-Welirang,Indonesia,-7.733,112.575,3339,Stratovolcano,53983,1950,2,1952,0
Asamayama,Japan,36.406,138.523,2568,Complex,22371,1108,5,2015,1
Askja,Iceland,65.033,-16.783,1080,Stratovolcano,0,1875,5,1961,2
Asosan,Japan,32.884,131.104,1592,Caldera,75559,2016,3,2016,3
Asuncion,United States,19.671,145.406,857,Stratovolcano,0,1906,2,1906,2
Ata,Japan,31.22,130.57,924,Caldera(s),93134,-2690,5,885,4
Atacazo,Ecuador,-0.353,-78.617,4463,Stratovolcano,212988,-320,5,-320,5
Atitlan,Guatemala,14.583,-91.186,3535,Stratovolcano(es),70431,1853,3,1853,3
Atka,United States,52.331,-174.139,1448,Stratovolcano(es),0,1812,3,1812,3
Augustine,United States,59.363,-153.43,1252,Lava dome(s),0,1986,4,2005,3
Avachinsky,Russia,53.256,158.836,2717,Stratovolcano,0,-1350,5,2001,1
Awu,Indonesia,3.67,125.5,1320,Stratovolcano,22655,1966,4,2004,2
Axial Seamount,Undersea Features,45.95,-130.0,-1410,Submarine,0,2015,0,2015,0
Azufral,Colombia,1.08,-77.68,4070,Stratovolcano,40657,-930,4,-930,4
Azul,Chile,-35.653,-70.761,3788,Stratovolcano,158,1916,5,2008,1
Azul,Ecuador,-0.92,-91.408,1640,Shield,220,1916,5,2008,1
Azul,Nicaragua,12.53,-83.87,201,Pyroclastic cone(s),4310,1916,5,2008,1
Azumayama,Japan,37.735,140.244,1949,Stratovolcano(es),907,-4150,3,1977,1
Babuyan Claro,Philippines,19.523,121.94,1080,Stratovolcano(es),222,1831,4,1924,2
Bagana,Papua New Guinea,-6.137,155.196,1855,Lava cone,404,1952,4,2000,2
Bakening,Russia,53.905,158.07,2278,Stratovolcano,10,-6550,3,-550,2
Baker,United States,48.777,-121.813,3285,Stratovolcano(es),46,1843,3,1880,2
Bam,Papua New Guinea,-3.613,144.818,685,Stratovolcano,192,1877,3,1960,2
Bamus,Papua New Guinea,-5.2,151.23,2248,Stratovolcano,630,1886,3,1886,3
Banda Api,Indonesia,-4.523,129.881,596,Caldera,5682,1988,3,1988,3
Bandaisan,Japan,37.601,140.072,1816,Stratovolcano,17608,1888,4,1888,4
Banua Wuhu,Indonesia,3.138,125.491,-5,Submarine,480,1918,3,1918,3
Barcena,Mexico,19.3,-110.82,332,Pyroclastic cone(s),0,1952,3,1952,3
Bardarbunga,Iceland,64.633,-17.516,2000,Stratovolcano,0,1477,6,2014,0
Barren Island,India,12.278,93.858,354,Stratovolcano,645,2013,2,2013,1
Barrier,Kenya,2.32,36.57,1032,Shield,112,1921,2,1921,2
Barva,Costa Rica,10.135,-84.1,2906,Complex,8018,-6050,4,-6050,4
Batur,Indonesia,-8.242,115.375,1717,Caldera,466899,1974,2,1999,1
Belknap,United States,44.285,-121.841,2095,Shield(s),0,480,2,480,2
Berlin,Antarctica,-76.05,-136.0,3478,Shield(s),0,-8350,0,-8350,0
Besar,Indonesia,-4.43,103.67,1899,Stratovolcano?,2467,1940,1,1940,1
Bezymianny,Russia,55.972,160.595,2882,Stratovolcano,0,1955,5,2010,3
Biliran,Philippines,11.523,124.535,1301,Compound,78799,1939,1,1939,1
Billy Mitchell,Papua New Guinea,-6.092,155.225,1544,Pyroclastic shield,449,1580,6,1580,6
Black Butte Crater Lava Field,United States,43.183,-114.352,1478,Shield,158,-8400,0,-8400,0
Black Peak,United States,56.552,-158.785,1032,Stratovolcano,0,-1900,6,-1900,6
Blanco,Argentina,-26.789,-67.765,4670,Caldera,39,-2300,7,-2300,7
Bliznetsy,Russia,57.35,161.37,265,Lava cone,4,-1060,1,-1060,1
Bogoslof,United States,53.93,-168.03,150,Submarine,0,2016,3,2016,3
Bolshoi-Kekuknaysky,Russia,56.483,157.917,1401,Shield(s),0,-5310,3,-5310,3
Boomerang Seamount,France,-37.721,77.825,-650,Submarine,0,1995,0,1995,0
Bouvet,Norway,-54.408,3.351,741,Shield,0,-50,0,-50,0
Bravo,Colombia,5.091,-75.293,3985,Stratovolcano,4916,1720,4,1720,4
Brennisteinsfjoll,Iceland,63.933,-21.783,610,Crater rows,33526,1341,2,1341,2
Bristol Island,United Kingdom,-59.017,-26.533,1100,Stratovolcano,0,1956,3,2016,1
Buckle Island,Antarctica,-66.78,163.25,1239,Stratovolcano,0,1899,2,1899,2
Bulusan,Philippines,12.77,124.05,1565,Stratovolcano(es),74286,1981,3,2016,2
Burney,Chile,-52.33,-73.4,1758,Stratovolcano,0,-2320,5,1910,2
Buzzard Creek,United States,64.062,-148.433,830,Tuff ring(s),0,-1050,2,-1050,2
Cagua,Philippines,18.222,122.123,1133,Stratovolcano,1137,1860,2,1860,2
Calbuco,Chile,-41.33,-72.618,1974,Stratovolcano,871,-6760,5,2015,4
Callaqui,Chile,-37.92,-71.45,3164,Stratovolcano,294,1751,2,1980,1
Cameroon,Cameroon,4.203,9.17,4095,Stratovolcano,26053,1807,3,2000,2
Camiguin,Philippines,9.203,124.673,1552,Stratovolcano(es),51587,1948,3,1948,3
Camiguin de Babuyanes,Philippines,18.83,121.86,712,Stratovolcano,1066,1857,2,1857,2
Campi Flegrei,Italy,40.827,14.139,458,Caldera,2234109,-2150,5,1538,3
Campi Flegrei Mar Sicilia,Italy,37.1,12.7,-8,Submarine,230578,1831,3,1867,0
Candlemas Island,United Kingdom,-57.08,-26.67,550,Stratovolcano,0,1911,2,1911,2
Carrán-Los Venados,Chile,-40.35,-72.07,1114,Pyroclastic cone(s),4840,1955,4,1979,2
Cayambe,Ecuador,0.029,-77.986,5790,Compound,1148,1570,4,1785,2
Ceboruco,Mexico,21.125,-104.508,2280,Stratovolcano,30319,930,6,1870,3
Cendres,Vietnam,10.158,109.014,-20,Submarine,0,1923,2,1923,2
Cereme,Indonesia,-6.892,108.4,3078,Stratovolcano,67377,1698,3,1951,2
Chacana,Ecuador,-0.375,-78.25,4643,Caldera,81716,1773,0,1773,0
Chachadake [Tiatia],Japan - administered by Russia,44.353,146.252,1822,Stratovolcano,223,1973,4,1981,2
Chachimbiro,Ecuador,0.468,-78.287,4106,Stratovolcano,5299,-3740,3,-3740,3
Chaiten,Chile,-42.833,-72.646,1122,Caldera,8968,-3100,5,2008,4
Changbaishan,China-North Korea,41.98,128.08,2744,Stratovolcano,1833,942,7,1898,2
Chichinautzin,Mexico,19.08,-99.13,3930,Volcanic field,584725,-7370,4,400,3
Chichon,Mexico,17.36,-93.228,1150,Lava dome(s),11000,1982,5,1982,5
Chiginagak,United States,57.135,-156.99,2221,Stratovolcano,0,1971,2,1998,1
Chikurachki,Russia,50.324,155.461,1781,Stratovolcano(es),65,1986,4,2016,2
Chiles-Cerro Negro,Colombia-Ecuador,0.817,-77.938,4698,Stratovolcano,4573,1936,2,1936,2
Chillan,Chile,-36.863,-71.377,3212,Stratovolcano,371,1864,3,2016,2
Chirinkotan,Russia,48.98,153.48,724,Stratovolcano,0,2016,3,2016,3
Chirippusan [Chirip],Japan - administered by Russia,45.338,147.92,1587,Stratovolcano(es),372,1843,2,1860,1
Chirpoi,Russia,46.532,150.871,742,Caldera,1,1712,4,2012,0
Chokaisan,Japan,39.099,140.049,2236,Stratovolcano(es),707,1834,2,1974,1
Churchill,United States,61.38,-141.75,5005,Stratovolcano,0,847,6,847,6
Chyulu Hills,Kenya,-2.68,37.88,2188,Volcanic field,14889,1855,2,1855,2
Cleft Segment,Undersea Features,44.83,-130.3,-2140,Submarine,0,1986,0,1986,0
Cleveland,United States,52.825,-169.944,1730,Stratovolcano,0,2013,3,2016,0
CoAxial Segment,Undersea Features,46.52,-129.58,-2400,Submarine,0,1993,0,1993,0
Cofre de Perote,Mexico,19.492,-97.15,4282,Shield(s),18638,1150,2,1150,2
Colima,Mexico,19.514,-103.62,3850,Stratovolcano(es),746,1913,5,2013,2
Colo,Indonesia,-0.162,121.601,404,Stratovolcano,2025,1983,4,1983,4
Concepcion,Nicaragua,11.538,-85.622,1700,Stratovolcano,28900,-770,4,2009,1
Copahue,Chile-Argentina,-37.856,-71.183,2953,Stratovolcano,555,2015,2,2015,2
Cosiguina,Nicaragua,12.98,-87.57,872,Stratovolcano,4114,1835,5,1852,2
Cotopaxi,Ecuador,-0.677,-78.436,5911,Stratovolcano,7299,1130,5,2015,2
Crater Lake,United States,42.93,-122.12,2487,Caldera,52,-5680,7,-5550,0
Craters of the Moon,United States,43.42,-113.5,2005,Pyroclastic cone(s),15,-130,0,-130,0
Cuicocha,Ecuador,0.308,-78.364,3246,Caldera,178815,-1150,5,-1150,5
Cumbal,Colombia,0.95,-77.87,4764,Stratovolcano,10206,1926,2,1926,2
Curacoa,Tonga,-15.62,-173.67,-33,Submarine,0,1973,3,1979,1
Dabbahu,Ethiopia,12.595,40.48,1401,Stratovolcano,1150,2005,3,2005,3
Dakataua,Papua New Guinea,-5.094,150.094,408,Caldera,1147,653,6,1895,2
Dallol,Ethiopia,14.242,40.3,-48,Explosion crater(s),670,1926,1,2011,0
Damavand,Iran,35.951,52.109,5670,Stratovolcano,2295,-5350,0,-5350,0
Dana,United States,55.641,-161.214,1354,Stratovolcano,0,-1890,5,-1890,5
Darwin,Ecuador,-0.18,-91.28,1330,Shield,190,1813,2,1813,2
Deception Island,Antarctica,-63.001,-60.652,602,Caldera,0,1970,3,1970,3
Dempo,Indonesia,-4.03,103.13,3173,Stratovolcano(es),9613,1974,2,2009,1
Descabezado Grande,Chile,-35.58,-70.75,3953,Stratovolcano(es),142,1932,3,1932,3
Dhamar,Yemen,14.57,44.67,3500,Volcanic field,791276,1937,2,1937,2
Diamond Craters,United States,43.1,-118.75,1435,Volcanic field,66,-5610,4,-5610,4
Didicas,Philippines,19.077,122.202,228,Compound,0,1978,2,1978,2
Dieng Volcanic Complex,Indonesia,-7.2,109.879,2565,Complex,1092929,1375,3,2009,1
Don Joao de Castro Bank,Portugal,38.23,-26.63,-13,Submarine,0,1720,3,1720,3
Dona Juana,Colombia,1.5,-76.936,4137,Stratovolcano,5372,1897,4,1897,4
Dotsero,United States,39.661,-107.035,2230,Maar,4821,-2200,2,-2200,2
Dubbi,Eritrea,13.579,41.809,1625,Stratovolcano,0,1861,3,1861,3
Dukono,Indonesia,1.693,127.894,1229,Complex,3348,1933,3,1933,3
East Gakkel Ridge at 85°E,Undersea Features,85.608,85.25,-3800,Submarine,0,1999,2,1999,2
Eastern Gemini Seamount,France,-20.98,170.28,-80,Submarine,0,1996,1,1996,1
Ebeko,Russia,50.686,156.014,1103,Stratovolcano,267,2016,2,2016,2
Ebulobo,Indonesia,-8.82,121.18,2124,Stratovolcano,24149,1969,2,1969,2
Ecuador,Ecuador,-0.02,-91.546,790,Shield,135,1150,0,1150,0
Edziza,Canada,57.72,-130.63,2786,Stratovolcano,0,950,3,950,3
Egon,Indonesia,-8.676,122.455,1661,Stratovolcano,23263,2008,2,2008,2
Ekarma,Russia,48.958,153.93,1170,Stratovolcano,0,2010,2,2010,2
Elovsky,Russia,57.55,160.53,1381,Shield(s),0,-7550,4,-7550,4
Emuruangogolak,Kenya,1.5,36.33,1285,Shield,252,1910,0,1910,0
Endeavour Segment,Canada,47.95,-129.1,-2050,Submarine,0,-3490,0,-3490,0
Epi,Vanuatu,-16.68,168.37,833,Stratovolcano(es),170,1953,3,2004,2
Erebus,Antarctica,-77.53,167.17,3794,Stratovolcano,0,1972,2,1972,1
Erta Ale,Ethiopia,13.6,40.67,613,Shield,2796,1967,0,1967,0
Esan,Japan,41.805,141.166,618,Lava dome(s),5831,-6670,3,1874,1
Escanaba Segment,Undersea Features,40.98,-127.5,-1700,Submarine,0,-2260,0,-2260,0
Etna,Italy,37.748,14.999,3295,Stratovolcano(es),3291,-122,5,2013,2
Etorofu-Atosanupuri [Atosanupuri],Japan - administered by Russia,44.808,147.131,1206,Stratovolcano,289,1932,2,1932,2
Etorofu-Yakeyama [Grozny Group],Japan - administered by Russia,45.012,147.871,1158,Complex(es),39,2013,2,2013,2
Eyjafjallajokull,Iceland,63.633,-19.633,1651,Stratovolcano,4,2010,4,2010,4
Falcon Island,Tonga,-20.32,-175.42,-17,Submarine,302,1885,3,1936,2
Farallon de Pajaros,United States,20.538,144.896,360,Stratovolcano,0,1952,2,1967,0
Fayal,Portugal,38.6,-28.73,1043,Stratovolcano,13757,1957,2,1957,2
Fentale,Ethiopia,8.975,39.93,2007,Stratovolcano,14201,1820,0,1820,0
Fernandina,Ecuador,-0.37,-91.55,1476,Shield,129,1968,4,2009,2
Fisher,United States,54.65,-164.43,1112,Stratovolcano,0,-7420,6,1830,2
Fogo,Cape Verde,14.95,-24.35,2829,Stratovolcano,13254,2014,3,2014,3
Fonualei,Tonga,-18.02,-174.325,180,Stratovolcano,71,1846,4,1951,2
Fournaise,France,-21.244,55.708,2632,Shield,55859,-2700,5,2016,0
Fourpeaked,United States,58.77,-153.672,2105,Stratovolcano,0,2006,2,2006,2
Fremrinamar,Iceland,65.416,-16.666,970,Stratovolcano,0,-2300,0,-2300,0
Fuego,Guatemala,14.473,-90.88,3763,Stratovolcano(es),54332,1974,4,2002,2
Fueguino,Chile,-54.97,-70.262,157,Lava dome(s),78,1820,2,1820,2
Fujisan,Japan,35.361,138.728,3776,Stratovolcano,1759,1707,5,1707,5
Fukujin,United States,21.93,143.47,-217,Submarine,0,1973,1,1973,1
Fukutoku-Oka-no-Ba,Japan,24.285,141.481,-29,Submarine,19,1914,3,2010,1
Furnas,Portugal,37.77,-25.32,805,Stratovolcano,7310,1630,5,1630,5
Fuss Peak,Russia,50.267,155.246,1742,Stratovolcano,62,1854,3,1854,3
Galapagos Rift,Undersea Features,0.792,-86.15,-2430,Submarine,0,1996,0,1996,0
Galeras,Colombia,1.22,-77.37,4276,Complex,120817,2008,3,2012,2
Galunggung,Indonesia,-7.25,108.058,2168,Stratovolcano,66495,1822,5,1984,1
Gamalama,Indonesia,0.8,127.33,1715,Stratovolcano(es),204820,1990,3,2016,1
Gamkonora,Indonesia,1.38,127.53,1635,Stratovolcano,12744,1673,5,2007,2
Gareloi,United States,51.79,-178.794,1573,Stratovolcano,0,1982,3,1989,1
Garibaldi,Canada,49.85,-123.0,2678,Stratovolcano,22,-8060,3,-8060,3
Gaua,Vanuatu,-14.27,167.5,797,Stratovolcano,1200,1965,3,2011,1
Gede-Pangrango,Indonesia,-6.77,106.965,3008,Stratovolcano(es),154390,1853,3,1957,2
Ghegam Ridge,Armenia,40.275,44.75,3597,Volcanic field,1265153,-1900,0,-1900,0
Glacier Peak,United States,48.112,-121.113,3213,Stratovolcano,0,200,4,1700,2
Gorely,Russia,52.559,158.03,1799,Caldera,0,1980,3,2010,1
Gorny Institute,Russia,57.33,160.2,2125,Stratovolcano,0,-4250,0,-4250,0
Great Sitkin,United States,52.076,-176.13,1740,Stratovolcano,0,1974,2,1974,2
Grimsnes,Iceland,64.05,-20.883,200,Crater rows,6253,-4270,3,-3500,2
Grimsvotn,Iceland,64.416,-17.316,1719,Caldera,0,-8230,6,2011,4
Guagua Pichincha,Ecuador,-0.171,-78.598,4784,Stratovolcano,32488,930,5,2002,1
Guallatiri,Chile,-18.42,-69.092,6071,Stratovolcano,63,1960,2,1960,2
Guguan,United States,17.307,145.845,287,Stratovolcano,0,1883,2,1883,2
Guntur,Indonesia,-7.143,107.84,2249,Complex,218012,1843,3,1847,2
Gunungapi Wetar,Indonesia,-6.642,126.65,282,Stratovolcano,2,1699,3,1699,3
Hachijojima,Japan,33.137,139.766,854,Stratovolcano(es),13560,-2050,5,1606,2
Hakkodasan,Japan,40.659,140.877,1585,Stratovolcano(es),730,-2250,3,1550,1
Hakoneyama,Japan,35.233,139.021,1438,Complex,53755,-6000,3,2015,1
Hakusan,Japan,36.155,136.771,2702,Stratovolcano,807,-200,4,1659,2
Harrat Ash Shamah,Syria-Jordan-Saudi Arabia,32.333,37.583,1100,Volcanic field,276996,1850,0,1850,0
Harunasan,Japan,36.477,138.851,1449,Stratovolcano,36116,550,5,550,5
Havre Seamount,New Zealand,-31.08,-179.033,-897,Submarine,0,2012,1,2012,1
Hayes,United States,61.64,-152.411,3034,Stratovolcano,0,-1550,5,-1550,5
Haylan,Yemen,15.4,45.1,1550,Volcanic field,225754,-1200,0,-1200,0
Heard,Australia,-53.106,73.513,2745,Stratovolcano,0,2000,2,2012,0
Hekla,Iceland,63.983,-19.666,1490,Stratovolcano,0,1104,5,2000,3
Hell's Half Acre,United States,43.5,-112.45,1631,Shield,305,-3250,0,-3250,0
Hengill,Iceland,64.083,-21.416,803,Crater rows,5722,150,2,150,2
Hierro,Spain,27.73,-18.03,1500,Shield,20321,2011,2,2011,2
Hiuchigatake,Japan,36.955,139.285,2356,Stratovolcano,720,1544,2,1544,2
Hokkaido-Komagatake,Japan,42.063,140.677,1131,Stratovolcano,23091,1640,5,2000,1
Home Reef,Tonga,-18.992,-174.775,-10,Submarine,0,1984,3,2006,2
Hood,United States,45.374,-121.695,3426,Stratovolcano,850,1865,2,1865,2
Hoodoo Mountain,Canada,56.78,-131.28,1850,Subglacial,0,-7050,0,-7050,0
Hornopiren,Chile,-41.874,-72.431,1572,Stratovolcano,116,-3720,4,-3720,4
Hualalai,United States,19.692,-155.87,2523,Shield,35906,1240,2,1800,0
Huaynaputina,Peru,-16.608,-70.85,4850,Stratovolcano,210,1600,6,1600,6
Hudson Mountains,Antarctica,-74.33,-99.42,749,Stratovolcano(es),0,-210,4,-210,4
Hudson,Chile,-45.9,-72.97,1905,Stratovolcano,12,-1890,6,2011,2
Huequi,Chile,-42.377,-72.578,1318,Lava dome(s),7,1890,3,1920,2
Huila,Colombia,2.93,-76.03,5364,Stratovolcano,3501,2008,3,2008,2
Hunga Tonga-Hunga Ha'apai,Tonga,-20.536,-175.382,114,Submarine,230,2014,2,2014,2
Hunter Island,France,-22.4,172.05,297,Stratovolcano,0,1903,0,1903,0
Ibu,Indonesia,1.488,127.63,1325,Stratovolcano,14549,1998,2,2008,1
Ichinsky,Russia,55.678,157.718,3596,Stratovolcano,0,-5400,5,1740,0
Igwisi Hills,Tanzania,-4.889,31.933,1146,Pyroclastic cone(s),37034,-10450,1,-10450,1
Ijen,Indonesia,-8.058,114.242,2769,Stratovolcano(es),5504,1936,2,1999,1
Iliamna,United States,60.032,-153.09,3053,Stratovolcano,0,-2050,4,1876,3
Iliboleng,Indonesia,-8.342,123.258,1659,Stratovolcano,87503,1987,2,1993,1
Iliinsky,Russia,51.498,157.203,1555,Stratovolcano,0,-2850,5,1901,3
Iliwerung,Indonesia,-8.53,123.57,1018,Complex,4318,1870,3,2013,0
Ilopango,El Salvador,13.672,-89.053,450,Caldera,2049583,450,6,1879,3
Inielika,Indonesia,-8.73,120.98,1559,Complex,27281,2001,2,2001,2
Ioto,Japan,24.751,141.289,169,Caldera,1179,2012,1,2012,1
Io-Torishima,Japan,27.881,128.223,212,Complex,0,1959,2,1968,1
Irazu,Costa Rica,9.979,-83.852,3432,Stratovolcano,25442,1963,3,1994,2
Irruputuncu,Chile-Bolivia,-20.73,-68.55,5163,Stratovolcano,239,1995,2,1995,2
Ischia,Italy,40.73,13.897,789,Complex,20210,40,3,40,3
Isluga,Chile,-19.15,-68.83,5550,Stratovolcano,703,1913,2,1913,2
Iwakisan,Japan,40.656,140.303,1625,Stratovolcano,13229,1604,3,1863,1
Iwatesan,Japan,39.853,141.001,2038,Complex,18462,1686,3,1919,1
Iya,Indonesia,-8.897,121.645,637,Stratovolcano,46835,1969,3,1969,3
Izalco,El Salvador,13.813,-89.633,1950,Stratovolcano,55665,1948,3,1966,0
Izu-Oshima,Japan,34.724,139.394,758,Stratovolcano,8037,1421,4,1990,2
Izu-Tobu,Japan,34.9,139.098,1406,Pyroclastic cone(s),61727,-1150,4,1989,1
Izu-Torishima,Japan,30.484,140.303,394,Stratovolcano,21,1939,3,2002,2
Jan Mayen,Norway,71.087,-8.146,2085,Stratovolcano,0,1970,3,1985,0
Jolo,Philippines,6.013,121.057,811,Pyroclastic cone(s),295392,1897,0,1897,0
Jordan Craters,United States,43.147,-117.46,1473,Volcanic field,0,-1250,2,-1250,2
Kaba,Indonesia,-3.522,102.615,1940,Stratovolcano,15352,1956,2,2000,1
Kaguyak,United States,58.608,-154.028,901,Lava dome(s),0,-3850,5,-3850,5
Kaitoku Seamount,Japan,26.06,140.933,-173,Submarine,0,1984,0,1984,0
Kambalny,Russia,51.306,156.875,2116,Stratovolcano,20,2017,3,2017,3
Kanaga,United States,51.923,-177.168,1307,Stratovolcano,0,2012,2,2012,2
Kanlaon,Philippines,10.412,123.132,2435,Stratovolcano,40276,2015,2,2015,2
Karangetang,Indonesia,2.781,125.407,1797,Stratovolcano,4478,2010,3,2014,1
Karkar,Papua New Guinea,-4.649,145.964,1839,Stratovolcano,4159,730,4,2014,1
Karpinsky Group,Russia,50.148,155.373,1326,Cone(s),104,1952,1,1952,1
Karthala,Comoros,-11.75,43.38,2361,Shield,225379,2005,3,2007,2
Karymsky,Russia,54.049,159.443,1513,Stratovolcano,0,-6600,6,2016,2
Kasatochi,United States,52.177,-175.508,314,Stratovolcano,0,2008,4,2008,4
Kasuga 1,United States,21.765,143.71,-598,Submarine,0,1959,0,1959,0
Katla,Iceland,63.633,-19.083,1490,Subglacial,0,1755,5,1918,4
Katmai,United States,58.28,-154.963,2047,Stratovolcano,0,1912,3,1912,3
Kavachi,Solomon Islands,-8.991,157.979,-20,Submarine,6,1991,2,2014,1
Kelimutu,Indonesia,-8.77,121.82,1639,Complex,9896,1938,2,1968,1
Kelut,Indonesia,-7.93,112.308,1731,Stratovolcano,50901,1586,5,2014,4
Kerinci,Indonesia,-1.697,101.264,3800,Stratovolcano,33878,2016,2,2016,1
Ketoi,Russia,47.35,152.475,1172,Stratovolcano,10,1960,2,1960,2
Khangar,Russia,54.761,157.407,1967,Stratovolcano,0,-5700,6,-5700,6
Kharimkotan,Russia,49.12,154.508,1145,Stratovolcano,2,1933,5,1933,5
Khaybar,Saudi Arabia,25.0,39.92,2093,Volcanic field,13619,650,2,650,2
Khodutka,Russia,52.062,157.711,2039,Stratovolcano(es),0,-930,5,-300,0
Kick 'em Jenny,Grenada,12.3,-61.64,-185,Submarine,4687,1939,1,2015,0
Kikai,Japan,30.789,130.308,704,Caldera,152,-4350,7,2013,1
Kikhpinych,Russia,54.489,160.251,1506,Stratovolcano(es),29,1350,4,1350,4
Kilauea,United States,19.421,-155.287,1222,Shield,3122,1790,4,1983,1
Kinenin,Russia,57.35,160.97,583,Maar,0,850,4,850,4
Kirishimayama,Japan,31.934,130.862,1700,Shield,8415,1235,4,2011,2
Kiska,United States,52.103,177.602,1220,Stratovolcano,0,1962,3,1990,2
Kita-Fukutokutai,Japan,24.417,141.417,-73,Submarine,0,1953,0,1953,0
Kita-Ioto,Japan,25.424,141.284,792,Stratovolcano,162,1930,2,1930,2
Kizimen,Russia,55.131,160.32,2334,Stratovolcano,26,-6400,5,2010,3
Klyuchevskoy,Russia,56.056,160.642,4754,Stratovolcano,0,1986,4,2015,2
Kolbeinsey Ridge,Iceland,66.67,-18.5,5,Submarine,0,1372,2,1372,2
Kolokol Group,Russia,46.042,150.083,1328,Stratovolcano,2,1970,3,1973,1
Komarov,Russia,55.033,160.725,2065,Stratovolcano,0,450,0,450,0
Kone,Ethiopia,8.8,39.692,1619,Caldera(s),27271,1820,1,1820,1
Korovin,United States,52.381,-174.166,1518,Stratovolcano(es),0,1998,3,2006,1
Koryaksky,Russia,53.321,158.712,3430,Stratovolcano,13,1956,3,2008,2
Koshelev,Russia,51.356,156.753,1822,Stratovolcano,2,1690,3,1690,3
Kostakan,Russia,53.83,158.05,1150,Pyroclastic cone(s),13,1000,3,1350,1
Kozushima,Japan,34.219,139.153,572,Lava dome(s),2406,838,4,838,4
Krafla,Iceland,65.715,-16.728,800,Caldera,384,-650,4,1984,0
Krakatau,Indonesia,-6.102,105.423,813,Caldera,7177,1883,6,2014,1
Krasheninnikov,Russia,54.596,160.27,1816,Caldera,308,-150,4,1350,0
Kronotsky,Russia,54.753,160.533,3482,Stratovolcano,12,1923,2,1923,2
Krummel-Garbuna-Welcker,Papua New Guinea,-5.416,150.027,564,Stratovolcano(es),8207,2008,2,2008,1
Krysuvik,Iceland,63.883,-22.083,360,Crater rows,29070,900,2,1340,1
Ksudach,Russia,51.844,157.572,1079,Stratovolcano,0,240,6,1907,5
Kuchinoerabujima,Japan,30.443,130.218,639,Stratovolcano(es),1698,1933,4,2015,3
Kueishantao,Taiwan,24.841,121.953,361,Stratovolcano,6523,1785,0,1785,0
Kujusan,Japan,33.086,131.249,1791,Stratovolcano(es),11771,-100,4,1995,1
Kunlun Volcanic Group,China,35.52,80.2,5808,Pyroclastic cone(s),1253,1951,2,1951,2
Kupreanof,United States,56.011,-159.797,1895,Stratovolcano,0,1987,1,1987,1
Kurikomayama,Japan,38.961,140.788,1627,Stratovolcano,1081,1950,2,1950,2
Kurile Lake,Russia,51.45,157.12,81,Caldera,23,-6440,7,-6440,7
Kusatsu-Shiranesan,Japan,36.618,138.528,2165,Stratovolcano(es),14296,-1120,4,1983,1
Kuttara,Japan,42.491,141.16,549,Stratovolcano(es),34015,1820,1,1820,1
Kuwae,Vanuatu,-16.829,168.536,-2,Caldera,2836,1949,3,1974,0
Kverkfjoll,Iceland,64.653,-16.647,1930,Stratovolcano,0,1959,1,1968,0
Kyejo,Tanzania,-9.229,33.792,2176,Stratovolcano,38428,1800,2,1800,2
La Palma,Spain,28.57,-17.83,2426,Stratovolcano(es),18506,1971,2,1971,2
Lamington,Papua New Guinea,-8.95,148.15,1680,Stratovolcano,2018,1951,4,1951,4
Lamongan,Indonesia,-7.979,113.342,1651,Stratovolcano,66387,1877,3,1898,2
Langila,Papua New Guinea,-5.525,148.42,1330,Complex,3653,1973,3,2016,2
Langjokull,Iceland,64.85,-19.7,1100,Subglacial,0,950,2,950,2
Lanin,Chile-Argentina,-39.637,-71.502,3776,Stratovolcano,352,90,0,90,0
Lanzarote,Spain,29.03,-13.63,670,Fissure vent(s),80515,1730,3,1824,2
Larderello,Italy,43.25,10.87,500,Explosion crater(s),13609,1282,3,1282,3
Lascar,Chile,-23.37,-67.73,5592,Stratovolcano(es),70,1993,4,2015,2
Lassen Volcanic Center,United States,40.492,-121.508,3187,Stratovolcano,9,1914,3,1914,3
Late,Tonga,-18.806,-174.65,540,Stratovolcano,158,1854,2,1854,2
Lautaro,Chile,-49.02,-73.55,3607,Stratovolcano,0,1979,2,1979,2
Lawu,Indonesia,-7.625,111.192,3265,Stratovolcano,68175,1885,1,1885,1
Lengai,Tanzania,-2.764,35.914,2962,Stratovolcano,1855,2007,3,2011,0
Leroboleng,Indonesia,-8.365,122.833,1095,Complex,26794,2003,3,2003,3
Lewotobi,Indonesia,-8.542,122.775,1703,Stratovolcano(es),59084,1932,3,2003,2
Lewotolo,Indonesia,-8.272,123.505,1423,Stratovolcano,10032,1660,3,2012,1
Liamuiga,Saint Kitts and Nevis,17.37,-62.8,1156,Stratovolcano,7285,160,4,160,4
Little Sitkin,United States,51.95,178.543,1174,Stratovolcano,0,1776,1,1776,1
Ljosufjoll,Iceland,64.9,-22.483,1063,Fissure vent(s),713,-2050,3,960,2
Llaima,Chile,-38.692,-71.729,3125,Stratovolcano,811,-6880,5,2008,3
Llullaillaco,Chile-Argentina,-24.72,-68.53,6739,Stratovolcano,18,1877,2,1877,2
Loihi,United States,18.92,-155.27,-975,Submarine,0,1996,0,1996,0
Lokon-Empung,Indonesia,1.358,124.792,1580,Stratovolcano(es),75684,2003,3,2015,1
Lolobau,Papua New Guinea,-4.92,151.158,858,Caldera,7243,1911,4,1911,4
Long Island,Papua New Guinea,-5.358,147.12,1280,Complex,2023,1660,6,1993,1
Longonot,Kenya,-0.914,36.446,2776,Stratovolcano,17893,1863,0,1863,0
Lonquimay,Chile,-38.379,-71.586,2832,Stratovolcano,540,1988,3,1988,3
Lopevi,Vanuatu,-16.507,168.346,1413,Stratovolcano,793,2003,3,2007,2
Macauley,New Zealand,-30.21,-178.475,238,Caldera,0,-4360,6,-4360,6
Macdonald,Undersea Features,-28.98,-140.25,-39,Submarine,0,1987,0,1987,0
Mahawu,Indonesia,1.352,124.865,1299,Stratovolcano,111852,1958,2,1977,0
Maipo,Chile-Argentina,-34.164,-69.832,5323,Caldera,3916,1912,2,1912,2
Makaturing,Philippines,7.647,124.32,1940,Stratovolcano,9752,1865,2,1865,2
Makian,Indonesia,0.32,127.4,1357,Stratovolcano,8466,1861,4,1988,3
Makushin,United States,53.891,-166.923,1800,Stratovolcano,0,-6100,5,1995,1
Maly Semyachik,Russia,54.135,159.674,1527,Caldera,98,1550,4,1952,2
Mammoth Mountain,United States,37.631,-119.032,3369,Lava dome(s),6242,-6540,2,-6540,2
Manam,Papua New Guinea,-4.08,145.037,1807,Stratovolcano,2553,2004,4,2014,2
Manda Hararo,Ethiopia,12.17,40.82,600,Shield(s),857,2009,2,2009,2
Manda-Inakir,Ethiopia-Djibouti,12.38,42.2,600,Fissure vent(s),1130,1928,2,1928,2
Marapi,Indonesia,-0.381,100.473,2891,Complex,57453,2011,2,2015,1
Marchena,Ecuador,0.33,-90.47,343,Shield,785,1991,2,1991,2
Mariana Back-Arc Segment at 15.5°N,United States,15.406,144.506,-4100,Submarine,0,2013,0,2013,0
Marion Island,South Africa,-46.9,37.75,1230,Shield(s),0,2004,1,2004,1
Marra,Sudan,12.95,24.27,3042,Volcanic field,8692,-2000,4,-2000,4
Maruyama,Japan,43.453,143.036,2013,Stratovolcano(es),6,1898,2,1898,2
Masaya,Nicaragua,11.984,-86.161,635,Caldera,989888,-4050,6,2015,1
Mashu,Japan,43.572,144.561,857,Caldera,9794,-5550,6,1080,5
Matthew Island,France,-22.33,171.32,177,Stratovolcano,1,1954,2,1956,0
Maule,Chile,-36.058,-70.492,2162,Caldera,1045,-50,0,-50,0
Mauna Loa,United States,19.475,-155.608,4170,Shield,45,1868,2,1984,0
Mayon,Philippines,13.257,123.685,2462,Stratovolcano,248448,1897,4,2014,0
Mayor Island,New Zealand,-37.28,176.25,355,Shield,105,-5060,5,-5060,5
McDonald Islands,Australia,-53.03,72.6,230,Complex,0,2001,1,2005,0
Meager,Canada,50.63,-123.5,2680,Complex,111,-410,5,-410,5
Medicine Lake,United States,41.611,-121.554,2412,Shield,0,1060,3,1060,3
Meidob Volcanic Field,Sudan,15.32,26.47,2000,Pyroclastic cone(s),5140,-3000,4,-2950,0
Menengai,Kenya,-0.2,36.07,2278,Shield,204608,-6050,6,-6050,6
Merapi,Indonesia,-7.542,110.442,2968,Stratovolcano,185849,2010,4,2014,3
Merbabu,Indonesia,-7.454,110.44,3118,Stratovolcano,249747,1797,2,1797,2
Meru,Tanzania,-3.25,36.75,4565,Stratovolcano,2506,-5850,4,1910,2
Methana,Greece,37.615,23.336,760,Lava dome(s),1683,-258,3,-258,3
Metis Shoal,Tonga,-19.18,-174.87,43,Submarine,18,1995,2,1995,2
Michinmahuida,Chile,-42.799,-72.445,2452,Stratovolcano,9,-8400,6,1835,0
Michoacan-Guanajuato,Mexico,19.85,-101.75,3860,Pyroclastic cone(s),5783287,1943,4,1943,4
Midagahara,Japan,36.571,137.59,2621,Stratovolcano,521,1839,2,1839,2
Milna,Russia,46.815,151.786,1504,Stratovolcano,47,1842,3,1914,2
Milos,Greece,36.699,24.439,751,Stratovolcano(es),7389,140,1,140,1
Minami Hiyoshi,Japan,23.5,141.935,-107,Submarine,0,1975,0,1975,0
Miravalles,Costa Rica,10.748,-85.153,2028,Stratovolcano,7492,1946,1,1946,1
Misti,Peru,-16.294,-71.409,5822,Stratovolcano,1507,-80,4,1985,1
Miyakejima,Japan,34.094,139.526,775,Stratovolcano,3189,1763,4,2010,1
Mocho-Choshuenco,Chile,-39.927,-72.027,2422,Stratovolcano(es),789,1864,2,1864,2
Moekeshiwan [Lvinaya Past],Japan - administered by Russia,44.608,146.994,528,Stratovolcano,206,-7480,6,-7480,6
Momotombo,Nicaragua,12.423,-86.539,1270,Stratovolcano,1851,1605,4,2015,2
Monaco Bank,Portugal,37.6,-25.88,-197,Submarine,0,1911,1,1911,1
Mono-Inyo Craters,United States,37.804,-119.029,2796,Lava dome(s),7393,1380,4,1380,4
Monowai,New Zealand,-25.887,-177.188,-132,Submarine,0,1979,1,2012,0
Montagu Island,United Kingdom,-58.445,-26.374,1370,Shield,0,2001,1,2001,1
Moua Pihaa,France,-18.325,-148.525,-312,Submarine,0,1970,0,1970,0
Moyorodake [Medvezhia],Japan - administered by Russia,45.389,148.838,1124,Stratovolcano,42,1883,2,1999,1
Musuan,Philippines,7.877,125.068,646,Lava dome,134114,1886,2,1886,2
Mutnovsky,Russia,52.449,158.196,2288,Complex,0,1917,3,2000,1
Myojinsho,Japan,31.888,139.918,11,Submarine,0,1970,2,1970,2
Myokosan,Japan,36.891,138.114,2454,Stratovolcano,11033,-4750,5,-2750,4
Nabro,Eritrea,13.37,41.7,2218,Stratovolcano,145,2011,4,2011,4
Nakanoshima,Japan,29.859,129.857,979,Stratovolcano(es),170,1914,1,1914,1
Naruko,Japan,38.729,140.734,470,Caldera,54771,837,1,837,1
Nasudake,Japan,37.125,139.963,1915,Stratovolcano(es),5802,1410,3,1963,1
Negra,Ecuador,-0.83,-91.17,1124,Shield,408,2005,3,2005,3
Negro,Nicaragua,12.506,-86.702,728,Pyroclastic cone(s),10243,1992,3,1999,2
Nejapa-Miraflores,Nicaragua,12.12,-86.32,360,Fissure vent(s),870837,1060,3,1060,3
Nemo Peak,Russia,49.57,154.808,1018,Caldera,15,1938,2,1938,2
Newberry,United States,43.722,-121.229,2434,Shield,0,690,4,690,4
Ngozi,Tanzania,-8.989,33.554,2614,Caldera,456466,-8250,5,-8250,5
Nightingale Island,United Kingdom,-37.42,-12.48,365,Stratovolcano,0,2004,0,2004,0
Niigata-Yakeyama,Japan,36.921,138.036,2400,Lava dome,610,887,4,1998,1
Niijima,Japan,34.397,139.27,432,Lava dome(s),3349,886,4,886,4
Nikko-Shiranesan,Japan,36.799,139.376,2578,Shield,2502,1625,3,1952,2
Nila,Indonesia,-6.73,129.5,781,Stratovolcano,200,1932,2,1968,1
Nishinoshima,Japan,27.247,140.874,25,Caldera,0,2013,2,2013,2
Nisyros,Greece,36.586,27.16,698,Stratovolcano,680,1888,2,1888,2
Niuafo'ou,Tonga,-15.6,-175.63,260,Shield,155,1886,4,1985,0
Norikuradake,Japan,36.106,137.554,3026,Stratovolcano(es),1616,-50,3,-50,3
North Gorda Ridge Segment,Undersea Features,42.67,-126.78,-3000,Submarine,0,1996,0,1996,0
Northern EPR at 10.7°N,Undersea Features,10.73,-103.58,-2900,Submarine,0,2003,0,2003,0
Northern EPR at 16°N,Undersea Features,15.83,-105.43,-2300,Submarine,0,-50,0,-50,0
Northern EPR at 17°N,Undersea Features,16.55,-105.32,-2700,Submarine,0,-50,0,-50,0
Northern EPR at 9.8°N,Undersea Features,9.83,-104.3,-2500,Submarine,0,2005,0,2005,0
Novarupta,United States,58.27,-155.157,841,Caldera,0,1912,6,1912,6
Numazawa,Japan,37.444,139.566,835,Shield,4082,-3400,5,-3400,5
NW Rota-1,United States,14.601,144.775,-517,Submarine,0,2003,0,2003,0
Nyamuragira,DR Congo,-1.408,29.2,3058,Shield,27027,1996,3,2016,0
Nyiragongo,DR Congo,-1.52,29.25,3470,Stratovolcano,31145,2002,2,2002,1
Ofu-Olosega,United States,-14.175,-169.618,639,Shield(s),384,1866,2,1866,2
Okataina,New Zealand,-38.12,176.5,1111,Lava dome(s),579,1886,5,1981,1
Okmok,United States,53.43,-168.13,1073,Shield,0,-100,6,2008,4
Ontakesan,Japan,35.893,137.48,3067,Complex,2098,2014,3,2014,3
Opala,Russia,52.543,157.339,2439,Caldera,22,610,5,1776,2
Oraefajokull,Iceland,64.05,-16.633,2010,Stratovolcano,2,1362,5,1727,4
Orizaba,Mexico,19.03,-97.27,5564,Stratovolcano,4469,-6710,5,1846,2
Oshima-Oshima,Japan,41.51,139.367,732,Stratovolcano,6,1741,4,1790,2
Osorno,Chile,-41.105,-72.496,2659,Stratovolcano,674,420,4,1869,2
Pacaya,Guatemala,14.382,-90.601,2569,Complex,53579,2006,3,2016,1
Pagan,United States,18.13,145.8,570,Stratovolcano(es),0,1981,4,2012,2
Paka,Kenya,0.92,36.18,1697,Shield,4354,-7550,4,-7550,4
Paluweh,Indonesia,-8.32,121.708,875,Stratovolcano,446,1972,3,2012,2
Pantelleria,Italy,36.77,12.02,836,Shield,10985,1891,1,1891,1
Papandayan,Indonesia,-7.32,107.73,2665,Stratovolcano(es),163468,1772,3,2002,2
Parinacota,Chile-Bolivia,-18.166,-69.142,6336,Stratovolcano,123,290,4,290,4
Parker,Philippines,6.113,124.892,1824,Stratovolcano,2963,1640,5,1640,5
Pavlof,United States,55.417,-161.894,2493,Stratovolcano,0,1762,4,2016,2
Payun Matru,Argentina,-36.422,-69.241,3715,Shield,0,-5050,0,-5050,0
Pelee,France,14.809,-61.165,1394,Stratovolcano,5025,1902,4,1929,3
Perbakti-Gagak,Indonesia,-6.75,106.7,1699,Stratovolcano(es),28784,1939,1,1939,1
Peuet Sague,Indonesia,4.914,96.329,2801,Complex,144,2000,2,2000,2
Pico,Portugal,38.47,-28.4,2351,Stratovolcano,5944,1720,2,1720,2
Pico Fracture Zone,Undersea Features,38.75,-38.08,-4200,Submarine,0,1865,0,1865,0
Picos Volcanic System,Portugal,37.78,-25.67,350,Pyroclastic cone(s),115732,1652,2,1652,2
Pilas,Nicaragua,12.495,-86.688,1088,Complex,8324,1954,2,1954,2
Pinatubo,Philippines,15.13,120.35,1486,Stratovolcano,3808,1991,6,1993,1
Planchon-Peteroa,Chile,-35.223,-70.568,3977,Stratovolcano(es),48,1762,4,2011,3
Poas,Costa Rica,10.2,-84.233,2708,Stratovolcano,11107,1994,2,2016,1
Popocatepetl,Mexico,19.023,-98.622,5426,Stratovolcano(es),2584,-3700,5,2005,2
Prestahnukur,Iceland,64.583,-20.666,1385,Subglacial,60,-3350,0,-3350,0
Prevo Peak,Russia,47.02,152.12,1360,Stratovolcano,6,1765,3,1825,2
Protector Seamounts,United Kingdom,-55.912,-28.167,-55,Submarine,0,1962,0,1962,0
Pululagua,Ecuador,0.038,-78.463,3356,Caldera,534403,-690,5,-450,4
Purace,Colombia,2.32,-76.4,4650,Stratovolcano(es),7152,1885,3,1977,2
Puyehue-Cordon Caulle,Chile,-40.59,-72.117,2236,Stratovolcano,783,2011,5,2011,5
Qualibou,Saint Lucia,13.83,-61.05,777,Caldera,87921,1766,1,1766,1
Quetrupillan,Chile,-39.5,-71.7,2360,Stratovolcano,518,1872,2,1872,2
Quill,Netherlands,17.478,-62.96,601,Stratovolcano,2195,-6140,4,-6140,4
Quilotoa,Ecuador,-0.85,-78.9,3914,Caldera,40429,1280,6,1280,6
Rabaul,Papua New Guinea,-4.271,152.203,688,Pyroclastic shield,43531,683,6,2014,3
Ragang,Philippines,7.7,124.5,2815,Stratovolcano,2646,1873,2,1873,2
Rahat,Saudi Arabia,23.08,39.78,1744,Volcanic field,1010115,1256,3,1256,3
Raikoke,Russia,48.292,153.25,551,Stratovolcano,0,1924,4,1924,4
Rainier,United States,46.853,-121.76,4392,Stratovolcano,128,-250,4,1894,1
Ranakah,Indonesia,-8.62,120.52,2350,Lava dome(s),63314,1987,3,1991,1
Raoul Island,New Zealand,-29.27,-177.92,516,Stratovolcano,0,-250,6,2006,1
Rasshua,Russia,47.77,153.02,956,Stratovolcano,9,1846,3,1957,1
Raung,Indonesia,-8.119,114.056,3260,Stratovolcano,572,1593,5,2015,3
Rausudake,Japan,44.076,145.122,1660,Stratovolcano,4623,550,4,1800,3
Raususan [Mendeleev],Japan - administered by Russia,43.979,145.733,882,Stratovolcano,1783,1880,1,1880,1
Reclus,Chile,-50.964,-73.585,1000,Pyroclastic cone,1,1879,2,1908,1
Redoubt,United States,60.485,-152.742,3108,Stratovolcano,0,2009,3,2009,3
Reventador,Ecuador,-0.077,-77.656,3562,Stratovolcano,963,2002,4,2008,2
Reykjanes,Iceland,63.85,-22.566,140,Crater rows,13995,1226,4,1926,0
Rincon de la Vieja,Costa Rica,10.83,-85.324,1916,Complex,1428,-1820,4,2015,1
Rinjani,Indonesia,-8.42,116.47,3726,Stratovolcano,55594,1257,7,2016,2
Ritter Island,Papua New Guinea,-5.519,148.115,75,Stratovolcano,43,1700,3,2007,1
Rocard,France,-17.662,-148.586,-2515,Submarine,0,1972,0,1972,0
Romeral,Colombia,5.203,-75.363,3769,Stratovolcano,2822,-5390,4,-5390,4
Roundtop,United States,54.8,-163.589,1871,Stratovolcano,0,-7600,5,-7600,5
Ruang,Indonesia,2.3,125.37,725,Stratovolcano,1652,2002,4,2002,4
Ruapehu,New Zealand,-39.28,175.57,2797,Stratovolcano,298,-7840,4,2007,1
Ruby,United States,15.62,145.57,-230,Submarine,0,1995,0,1995,0
Ruiz,Colombia,4.892,-75.324,5279,Stratovolcano,20146,1595,4,2014,2
Rumble III,New Zealand,-35.745,178.478,-220,Submarine,0,2008,0,2008,0
Rungwe,Tanzania,-9.135,33.668,2953,Stratovolcano,20713,-2050,5,-50,4
Sabancaya,Peru,-15.787,-71.857,5960,Stratovolcano(es),526,2016,3,2016,3
Salak,Indonesia,-6.72,106.73,2211,Stratovolcano,80578,1938,2,1938,2
San Cristobal,Nicaragua,12.702,-87.004,1745,Stratovolcano,7876,1528,3,2016,2
San Francisco Volcanic Field,United States,35.347,-111.678,3850,Pyroclastic cone,23157,1075,4,1075,4
San Jorge,Portugal,38.65,-28.08,1053,Fissure vent,4689,1580,3,1907,0
San Jose,Chile-Argentina,-33.789,-69.895,6070,Stratovolcano(es),616,1960,2,1960,2
San Martin,Mexico,18.57,-95.2,1650,Shield,3581,1793,4,1794,2
San Miguel,El Salvador,13.434,-88.269,2130,Stratovolcano,63007,2013,2,2016,1
San Pedro-San Pablo,Chile,-21.888,-68.391,6142,Stratovolcano(es),156,1960,2,1960,2
San Salvador,El Salvador,13.734,-89.294,1893,Stratovolcano,800780,1200,4,1917,3
Sanbesan,Japan,35.139,132.621,1126,Stratovolcano,6795,-1920,4,-1920,4
Sand Mountain Field,United States,44.38,-121.93,1664,Pyroclastic cone(s),89,-950,4,-950,4
Sangay,Ecuador,-2.005,-78.341,5286,Stratovolcano,1675,1934,3,1934,3
Sangeang Api,Indonesia,-8.2,119.07,1949,Complex,1155,2014,3,2014,3
Santa Ana,El Salvador,13.853,-89.63,2381,Stratovolcano,21653,2005,3,2005,3
Santa Maria,Guatemala,14.757,-91.552,3745,Stratovolcano,119462,1902,6,1922,3
Santiago,Ecuador,-0.22,-90.77,920,Shield,74,1904,0,1904,0
Santiago,Guatemala,14.33,-89.87,1192,Volcanic field,226325,1904,0,1904,0
Santorini,Greece,36.404,25.396,367,Shield(s),12266,-1610,7,1950,2
Sarychev Peak,Russia,48.092,153.2,1496,Stratovolcano,143,2009,4,2009,4
Sashiusudake [Baransky],Japan - administered by Russia,45.1,148.019,1125,Stratovolcano,0,1951,1,1951,1
Saunders,United Kingdom,-57.8,-26.483,843,Stratovolcano,0,1819,2,2015,0
Savai'i,Samoa,-13.612,-172.525,1858,Shield,59,1905,2,1905,2
Savo,Solomon Islands,-9.13,159.82,485,Stratovolcano,3200,1835,3,1835,3
Sawad,Yemen,13.58,46.12,1737,Volcanic field,74598,1253,3,1253,3
Seguam,United States,52.315,-172.51,1054,Stratovolcano(es),0,-7300,5,1993,2
Semeru,Indonesia,-8.108,112.922,3657,Stratovolcano,8375,1967,3,1967,3
Semisopochnoi,United States,51.93,179.58,1221,Stratovolcano,0,1987,2,1987,2
Serua,Indonesia,-6.312,130.017,608,Stratovolcano,58,1693,4,1921,2
Sete Cidades,Portugal,37.87,-25.78,856,Stratovolcano,10365,1444,4,1880,0
Seulawah Agam,Indonesia,5.448,95.658,1810,Stratovolcano,10555,1839,2,1839,2
Shasta,United States,41.409,-122.193,4317,Stratovolcano,35,-7650,4,1786,3
Sheveluch,Russia,56.653,161.36,3283,Stratovolcano,0,1854,5,1999,2
Shikotsu,Japan,42.688,141.38,1320,Caldera,130474,1739,5,1981,0
Shiretoko-Iozan,Japan,44.133,145.161,1562,Stratovolcano,1516,1889,2,1935,1
Shishaldin,United States,54.756,-163.97,2857,Stratovolcano,0,1999,3,2014,1
Sinabung,Indonesia,3.17,98.392,2460,Stratovolcano,13801,2013,2,2013,2
Sinarka,Russia,48.873,154.182,911,Stratovolcano,3,1872,4,1872,4
Sirung,Indonesia,-8.508,124.13,862,Complex,19334,2012,2,2015,1
Slamet,Indonesia,-7.242,109.208,3428,Stratovolcano,13401,2014,2,2014,2
Snaefellsjokull,Iceland,64.8,-23.783,1446,Stratovolcano,129,-1000,2,-1000,2
Soche,Ecuador,0.552,-77.58,3955,Stratovolcano,1460,-6650,5,-6650,5
Socorro,Mexico,18.78,-110.95,1050,Shield,0,1951,2,1993,0
Sollipulli,Chile,-38.97,-71.52,2282,Caldera,2971,-920,5,-920,5
Soputan,Indonesia,1.112,124.737,1785,Stratovolcano,69991,2016,3,2016,3
Sorikmarapi,Indonesia,0.686,99.539,2145,Stratovolcano,1469,1970,2,1986,1
Soufriere Guadeloupe,France,16.044,-61.664,1467,Stratovolcano,71345,1440,4,1976,2
Soufriere Hills,United Kingdom,16.72,-62.18,915,Stratovolcano,9401,2005,3,2005,3
Soufrière St. Vincent,Saint Vincent and the Grenadines,13.33,-61.18,1220,Stratovolcano,15327,1902,4,1979,3
South Island,Kenya,2.63,36.6,800,Stratovolcano,0,1888,1,1888,1
South Sarigan Seamount,United States,16.58,145.78,-184,Submarine,0,2010,3,2010,3
Southern EPR at 8°S,Undersea Features,-8.27,-107.95,-2800,Submarine,0,1964,0,1964,0
Southern EPR-Segment I,Undersea Features,-18.53,-113.42,-2600,Submarine,0,1915,0,1915,0
Southern EPR-Segment J,Undersea Features,-18.175,-113.35,-2650,Submarine,0,1890,0,1890,0
Southern EPR-Segment K,Undersea Features,-17.436,-113.206,-2566,Submarine,0,1990,0,1990,0
Southern Thule,United Kingdom,-59.442,-27.225,1075,Stratovolcano(es),0,1975,1,1975,1
Spurr,United States,61.299,-152.251,3374,Stratovolcano,0,1992,4,1992,4
St. Andrew Strait,Papua New Guinea,-2.38,147.35,270,Complex,678,1953,2,1953,2
St. Helens,United States,46.2,-122.18,2549,Stratovolcano,427,-1860,6,2004,2
St. Paul,France,-38.72,77.53,268,Stratovolcano,0,1793,2,1793,2
Stromboli,Italy,38.789,15.213,924,Stratovolcano,2225,1910,3,1934,2
Submarine Volcano NNE of Iriomotejima,Japan,24.57,123.93,-200,Submarine,0,1924,4,1924,4
Sumaco,Ecuador,-0.538,-77.626,3990,Stratovolcano,324,1895,2,1895,2
Sumbing,Indonesia,-2.414,101.728,2507,Stratovolcano,304,1921,2,1921,2
Sumbing,Indonesia,-7.384,110.07,3371,Stratovolcano,310361,1921,2,1921,2
Sumisujima,Japan,31.44,140.051,136,Submarine,0,1870,2,1916,0
Sundoro,Indonesia,-7.3,109.992,3136,Stratovolcano,496751,1971,2,1971,2
Suoh,Indonesia,-5.25,104.27,1000,Caldera(s),2048,1933,4,1933,4
Supply Reef,United States,20.13,145.1,-8,Submarine,0,1989,0,1989,0
Suretamatai,Vanuatu,-13.8,167.47,921,Complex,3509,1965,2,1965,2
Suwanosejima,Japan,29.638,129.714,796,Stratovolcano(es),107,1889,4,2004,2
Taal,Philippines,14.002,120.993,311,Caldera,717090,-3580,6,1977,2
Tacana,Mexico-Guatemala,15.132,-92.109,4064,Stratovolcano,20932,70,4,1986,1
Tafu-Maka,Tonga,-15.37,-174.23,-1400,Submarine,0,2008,0,2008,0
Tair,Yemen,15.55,41.83,244,Stratovolcano,0,2007,3,2007,3
Takaharayama,Japan,36.9,139.777,1795,Stratovolcano,4572,-4570,4,-4570,4
Talang,Indonesia,-0.979,100.681,2575,Stratovolcano,18512,2007,2,2007,2
Tambora,Indonesia,-8.25,118.0,2850,Stratovolcano,11331,1812,7,1967,0
Tanaga,United States,51.885,-178.146,1806,Stratovolcano(es),0,1914,0,1914,0
Tandikat-Singgalang,Indonesia,-0.39,100.331,2854,Stratovolcano(es),38799,1924,1,1924,1
Tangkoko-Duasudara,Indonesia,1.518,125.185,1334,Stratovolcano,57792,1680,5,1880,1
Tangkubanparahu,Indonesia,-6.77,107.6,2084,Stratovolcano,518822,2013,2,2013,1
Tao-Rusyr Caldera,Russia,49.35,154.7,1325,Stratovolcano,73,-5550,6,1952,3
Tara,Indonesia,-7.791,123.585,633,Stratovolcano,207,2007,2,2007,2
Taranaki [Egmont],New Zealand,-39.3,174.07,2518,Stratovolcano,230,-1700,5,1655,4
Tatun Group,Taiwan,25.17,121.52,1120,Lava dome(s),5084149,-4095,1,648,0
Taupo,New Zealand,-38.82,176.0,760,Caldera,21456,233,6,260,0
Taveuni,Fiji,-16.82,-179.97,1241,Shield,3220,1350,2,1550,0
Tavui,Papua New Guinea,-4.12,152.2,200,Caldera,30373,-4946,5,-4946,5
Teahitia,France,-17.564,-148.821,-1743,Submarine,0,1985,0,1985,0
Telica,Nicaragua,12.606,-86.84,1036,Stratovolcano(es),21990,1529,4,2015,2
Telong,Indonesia,4.769,96.821,2617,Stratovolcano,25733,1919,2,1919,2
Tenerife,Spain,28.271,-16.641,3715,Stratovolcano,156,-80,4,1909,2
Tengger Caldera,Indonesia,-7.942,112.95,2329,Stratovolcano(es),69451,-830,4,2015,2
Teon,Indonesia,-6.976,129.144,728,Stratovolcano,102,1660,4,1904,2
Terceira,Portugal,38.73,-27.32,1023,Stratovolcano(es),12299,1867,3,1998,0
Theistareykir,Iceland,65.833,-17.166,540,Shield,36,-900,0,-900,0
Three Sisters,United States,44.133,-121.767,3159,Complex,0,-350,4,440,2
Tinakula,Solomon Islands,-10.38,165.8,851,Stratovolcano,19,1965,3,2008,1
Tinguiririca,Chile,-34.814,-70.352,4280,Stratovolcano,47,1917,1,1917,1
Tofua,Tonga,-19.75,-175.07,515,Caldera,1556,1958,2,2004,1
Tokachidake,Japan,43.418,142.686,2077,Stratovolcano(es),227,1962,3,2004,1
Tolbachik,Russia,55.832,160.326,3611,Shield,0,2012,4,2012,4
Tolhuaca,Chile,-38.31,-71.645,2739,Stratovolcano,494,-4885,3,-4000,0
Tolima,Colombia,4.658,-75.33,5215,Stratovolcano,6563,-1990,5,1943,2
Tolmachev Dol,Russia,52.63,157.58,1021,Pyroclastic cone(s),2,-2650,4,-2650,4
Tomariyama [Golovnin],Japan - administered by Russia,43.844,145.504,535,Caldera,1796,1848,1,1848,1
Tongariro,New Zealand,-39.157,175.632,1978,Stratovolcano(es),286,-550,5,2012,2
Torfajokull,Iceland,63.892,-19.122,1280,Stratovolcano,0,870,3,1477,2
Toshima,Japan,34.52,139.279,508,Stratovolcano,331,-4550,0,-4550,0
Towada,Japan,40.51,140.88,1011,Caldera,12366,915,5,915,5
Toya,Japan,42.544,140.839,733,Stratovolcano,36191,1663,5,2000,2
Traitor's Head,Vanuatu,-18.754,169.238,817,Stratovolcano,380,1881,0,1881,0
Trident,United States,58.236,-155.1,1864,Stratovolcano,0,1974,3,1974,3
Tristan da Cunha,United Kingdom,-37.092,-12.28,2060,Shield,12,1961,2,1961,2
Tromen,Argentina,-37.144,-70.033,4114,Stratovolcano(es),196,1751,3,1751,3
Tungurahua,Ecuador,-1.467,-78.442,5023,Stratovolcano,20990,-1010,5,2015,3
Tupungatito,Chile-Argentina,-33.425,-69.797,5660,Stratovolcano,923,1987,2,1987,2
Turrialba,Costa Rica,10.025,-83.767,3340,Stratovolcano,6867,40,4,2015,2
Tutuila,United States,-14.295,-170.7,653,Tuff cone(s),49763,440,3,440,3
Tutupaca,Peru,-17.026,-70.372,5801,Stratovolcano(es),1125,1802,4,1802,4
Ubinas,Peru,-16.355,-70.903,5672,Stratovolcano,1195,1082,5,2016,2
Ugashik-Peulik,United States,57.751,-156.368,1474,Stratovolcano,0,1814,3,1814,3
Uinkaret Field,United States,36.38,-113.13,1555,Volcanic field,92,1100,1,1100,1
Ukinrek Maars,United States,57.832,-156.51,91,Maar(s),0,1977,3,1977,3
Ulawun,Papua New Guinea,-5.05,151.33,2334,Stratovolcano,1801,2000,4,2016,1
Ulreung,South Korea,37.5,130.87,984,Stratovolcano,9210,-8750,6,-8750,6
Unknown Source,Unknown,0.0,0.0,0,,0,1808,6,1808,6
Unzendake,Japan,32.761,130.299,1483,Complex,76424,1996,2,1996,2
Ushishur,Russia,47.52,152.8,401,Caldera,0,-7450,4,1884,1
Ushkovsky,Russia,56.113,160.509,3943,Compound,0,1890,2,1890,2
Uwayrid,Saudi Arabia,27.08,37.25,1920,Volcanic field,659,640,2,640,2
Vailulu'u,United States,-14.215,-169.058,-592,Submarine,0,2003,0,2003,0
Veer,Russia,53.75,158.45,520,Pyroclastic cone(s),1,390,2,390,2
Veniaminof,United States,56.17,-159.38,2507,Stratovolcano,0,-1750,6,2013,3
Vestmannaeyjar,Iceland,63.416,-20.266,283,Submarine,1685,-8050,4,1973,3
Vesuvius,Italy,40.821,14.426,1281,Stratovolcano,675705,1631,5,1913,3
Victory,Papua New Guinea,-9.2,149.07,1925,Stratovolcano,96,1890,2,1890,2
Viedma,Argentina,-49.358,-73.28,1500,Subglacial,0,1988,2,1988,2
Villarrica,Chile,-39.42,-71.93,2847,Stratovolcano,1067,-1810,5,2014,1
Vilyuchik,Russia,52.7,158.28,2173,Stratovolcano,1,-8050,2,-8050,2
Visoke,DR Congo-Rwanda,-1.458,29.485,3696,Stratovolcano,88356,1957,1,1957,1
Vsevidof,United States,53.13,-168.693,2149,Stratovolcano,0,1817,3,1878,2
Vulcano,Italy,38.404,14.962,500,Stratovolcano(es),23059,-183,4,1888,3
Vysoky,Russia,55.064,160.765,2129,Stratovolcano,0,-550,0,-550,0
Waiowa,Papua New Guinea,-9.57,149.075,640,Pyroclastic cone,338,1943,3,1943,3
Wapi Lava Field,United States,42.88,-113.22,1604,Shield,6,-300,2,-300,2
Watt,Dominica,15.307,-61.305,1224,Stratovolcano(es),35821,1880,2,1997,1
West Crater,United States,45.88,-122.08,1329,Volcanic field,505,-5750,2,-5750,2
West Mata,Tonga,-15.1,-173.75,-1174,Submarine,0,2008,0,2008,0
Westdahl,United States,54.518,-164.65,1654,Stratovolcano?,0,1795,4,1991,3
White Island,New Zealand,-37.52,177.18,321,Stratovolcano(es),5,2000,3,2016,1
Witori,Papua New Guinea,-5.576,150.516,724,Caldera,24509,710,6,2012,2
Wolf,Ecuador,0.02,-91.35,1710,Shield,165,2015,4,2015,4
Wrangell,United States,62.006,-144.017,4278,Shield,0,190,4,1999,1
Wudalianchi,China,48.72,126.12,597,Volcanic field,57885,1720,3,1776,2
Wurlali,Indonesia,-7.125,128.675,868,Stratovolcano,365,1892,2,1892,2
Yakedake,Japan,36.227,137.587,2455,Stratovolcano(es),2995,-350,4,1995,1
Yantarni,United States,57.019,-157.185,1345,Stratovolcano,0,-800,5,-800,5
Yar,Saudi Arabia,17.05,42.83,305,Volcanic field,292582,1810,2,1810,2
Yasur,Vanuatu,-19.532,169.447,361,Stratovolcano,6068,1774,3,1774,3
Yokoate-jima,Japan,28.797,128.997,495,Stratovolcano(es),64,1835,2,1835,2
Yonemaru-Sumiyoshiike,Japan,31.771,130.592,40,Maar(s),73354,-6200,3,-6200,3
Yucamane,Peru,-17.184,-70.196,5495,Stratovolcano(es),692,-1320,5,-1320,5
Yufu-Tsurumi,Japan,33.282,131.39,1584,Lava dome(s),139722,-200,4,867,3
Yunaska,United States,52.643,-170.629,550,Shield,0,1937,3,1937,3
Zaozan,Japan,38.144,140.44,1841,Complex,4681,300,4,1940,1
Zavaritsky,Russia,53.905,158.385,1567,Pyroclastic cone(s),0,-850,4,-800,2
Zavaritzki Caldera,Russia,46.925,151.95,624,Caldera,46,1957,3,1957,3
Zavodovski,United Kingdom,-56.3,-27.57,551,Stratovolcano,0,1819,2,2016,1
Zheltovsky,Russia,51.577,157.328,1926,Stratovolcano,21,-3050,5,1923,3
Zhupanovsky,Russia,53.589,159.15,2899,Compound,0,2014,3,2016,2
Zitacuaro-Valle de Bravo,Mexico,19.4,-100.25,3500,Caldera,231977,-3050,0,-3050,0
Zubair Group,Yemen,15.05,42.18,191,Shield,7,2013,2,2013,2
Zuni-Bandera,United States,34.8,-108.0,2550,Volcanic field,18,-1170,0,-1170,0
