[
  {
    "LATEST VEI": "4", 
    "ELEVATION": "3860", 
    "NAME": "Michoacan-Guanajuato", 
    "LARGEST VEI": "4", 
    "COUNTRY": "Mexico", 
    "ERUPTION COUNT": "1", 
    "LATEST YEAR": "1943", 
    "LONGITUDE": "-101.75", 
    "LARGEST YEAR": "1943", 
    "POPULATION WITHIN 10KM": "5783287", 
    "LATITUDE": "19.85", 
    "TYPE": "Pyroclastic cone(s)"
  }, 
  {
    "LATEST VEI": "3", 
    "ELEVATION": "450", 
    "NAME": "Ilopango", 
    "LARGEST VEI": "3", 
    "COUNTRY": "El Salvador", 
    "ERUPTION COUNT": "1", 
    "LATEST YEAR": "1879", 
    "LONGITUDE": "-89.053", 
    "LARGEST YEAR": "1879", 
    "POPULATION WITHIN 10KM": "2049583", 
    "LATITUDE": "13.672", 
    "TYPE": "Caldera"
  }, 
  {
    "LATEST VEI": "1", 
    "ELEVATION": "2565", 
    "NAME": "Dieng Volcanic Complex", 
    "LARGEST VEI": "2", 
    "COUNTRY": "Indonesia", 
    "ERUPTION COUNT": "20", 
    "LATEST YEAR": "2009", 
    "LONGITUDE": "109.879", 
    "LARGEST YEAR": "1953", 
    "POPULATION WITHIN 10KM": "1092929", 
    "LATITUDE": "-7.2", 
    "TYPE": "Complex"
  }, 
  {
    "LATEST VEI": "1", 
    "ELEVATION": "635", 
    "NAME": "Masaya", 
    "LARGEST VEI": "2", 
    "COUNTRY": "Nicaragua", 
    "ERUPTION COUNT": "28", 
    "LATEST YEAR": "2015", 
    "LONGITUDE": "-86.161", 
    "LARGEST YEAR": "1925", 
    "POPULATION WITHIN 10KM": "989888", 
    "LATITUDE": "11.984", 
    "TYPE": "Caldera"
  }, 
  {
    "LATEST VEI": "3", 
    "ELEVATION": "1893", 
    "NAME": "San Salvador", 
    "LARGEST VEI": "3", 
    "COUNTRY": "El Salvador", 
    "ERUPTION COUNT": "1", 
    "LATEST YEAR": "1917", 
    "LONGITUDE": "-89.294", 
    "LARGEST YEAR": "1917", 
    "POPULATION WITHIN 10KM": "800780", 
    "LATITUDE": "13.734", 
    "TYPE": "Stratovolcano"
  }, 
  {
    "LATEST VEI": "2", 
    "ELEVATION": "3500", 
    "NAME": "Dhamar", 
    "LARGEST VEI": "2", 
    "COUNTRY": "Yemen", 
    "ERUPTION COUNT": "1", 
    "LATEST YEAR": "1937", 
    "LONGITUDE": "44.67", 
    "LARGEST YEAR": "1937", 
    "POPULATION WITHIN 10KM": "791276", 
    "LATITUDE": "14.57", 
    "TYPE": "Volcanic field"
  }, 
  {
    "LATEST VEI": "2", 
    "ELEVATION": "311", 
    "NAME": "Taal", 
    "LARGEST VEI": "4", 
    "COUNTRY": "Philippines", 
    "ERUPTION COUNT": "17", 
    "LATEST YEAR": "1977", 
    "LONGITUDE": "120.993", 
    "LARGEST YEAR": "1965", 
    "POPULATION WITHIN 10KM": "717090", 
    "LATITUDE": "14.002", 
    "TYPE": "Caldera"
  }, 
  {
    "LATEST VEI": "3", 
    "ELEVATION": "1281", 
    "NAME": "Vesuvius", 
    "LARGEST VEI": "4", 
    "COUNTRY": "Italy", 
    "ERUPTION COUNT": "9", 
    "LATEST YEAR": "1913", 
    "LONGITUDE": "14.426", 
    "LARGEST YEAR": "1875", 
    "POPULATION WITHIN 10KM": "675705", 
    "LATITUDE": "40.821", 
    "TYPE": "Stratovolcano"
  }, 
  {
    "LATEST VEI": "1", 
    "ELEVATION": "2084", 
    "NAME": "Tangkubanparahu", 
    "LARGEST VEI": "2", 
    "COUNTRY": "Indonesia", 
    "ERUPTION COUNT": "17", 
    "LATEST YEAR": "2013", 
    "LONGITUDE": "107.6", 
    "LARGEST YEAR": "2013", 
    "POPULATION WITHIN 10KM": "518822", 
    "LATITUDE": "-6.77", 
    "TYPE": "Stratovolcano"
  }, 
  {
    "LATEST VEI": "2", 
    "ELEVATION": "3136", 
    "NAME": "Sundoro", 
    "LARGEST VEI": "2", 
    "COUNTRY": "Indonesia", 
    "ERUPTION COUNT": "9", 
    "LATEST YEAR": "1971", 
    "LONGITUDE": "109.992", 
    "LARGEST YEAR": "1971", 
    "POPULATION WITHIN 10KM": "496751", 
    "LATITUDE": "-7.3", 
    "TYPE": "Stratovolcano"
  }, 
  {
    "LATEST VEI": "1", 
    "ELEVATION": "1717", 
    "NAME": "Batur", 
    "LARGEST VEI": "2", 
    "COUNTRY": "Indonesia", 
    "ERUPTION COUNT": "25", 
    "LATEST YEAR": "1999", 
    "LONGITUDE": "115.375", 
    "LARGEST YEAR": "1974", 
    "POPULATION WITHIN 10KM": "466899", 
    "LATITUDE": "-8.242", 
    "TYPE": "Caldera"
  }, 
  {
    "LATEST VEI": "2", 
    "ELEVATION": "3371", 
    "NAME": "Sumbing", 
    "LARGEST VEI": "2", 
    "COUNTRY": "Indonesia", 
    "ERUPTION COUNT": "2", 
    "LATEST YEAR": "1921", 
    "LONGITUDE": "110.07", 
    "LARGEST YEAR": "1921", 
    "POPULATION WITHIN 10KM": "310361", 
    "LATITUDE": "-7.384", 
    "TYPE": "Stratovolcano"
  }, 
  {
    "LATEST VEI": "0", 
    "ELEVATION": "811", 
    "NAME": "Jolo", 
    "LARGEST VEI": "0", 
    "COUNTRY": "Philippines", 
    "ERUPTION COUNT": "1", 
    "LATEST YEAR": "1897", 
    "LONGITUDE": "121.057", 
    "LARGEST YEAR": "1897", 
    "POPULATION WITHIN 10KM": "295392", 
    "LATITUDE": "6.013", 
    "TYPE": "Pyroclastic cone(s)"
  }, 
  {
    "LATEST VEI": "2", 
    "ELEVATION": "305", 
    "NAME": "Yar", 
    "LARGEST VEI": "2", 
    "COUNTRY": "Saudi Arabia", 
    "ERUPTION COUNT": "1", 
    "LATEST YEAR": "1810", 
    "LONGITUDE": "42.83", 
    "LARGEST YEAR": "1810", 
    "POPULATION WITHIN 10KM": "292582", 
    "LATITUDE": "17.05", 
    "TYPE": "Volcanic field"
  }, 
  {
    "LATEST VEI": "2", 
    "ELEVATION": "3173", 
    "NAME": "Almolonga", 
    "LARGEST VEI": "2", 
    "COUNTRY": "Guatemala", 
    "ERUPTION COUNT": "1", 
    "LATEST YEAR": "1818", 
    "LONGITUDE": "-91.519", 
    "LARGEST YEAR": "1818", 
    "POPULATION WITHIN 10KM": "287487", 
    "LATITUDE": "14.797", 
    "TYPE": "Stratovolcano"
  }
]
