[
  {
    "elevation": 641, 
    "lastErupYear": "-6850", 
    "evidence": "Eruption Dated", 
    "subregion": "Honshu", 
    "pop030": 117805, 
    "pop100": 4071152, 
    "name": "Abu", 
    "country": "Japan", 
    "pop010": 9594, 
    "pop005": 3597, 
    "longitude": 131.6, 
    "region2": "Japan, Taiwan, Marianas", 
    "latitude": 34.5, 
    "type": "Shield(s)"
  }, 
  {
    "elevation": 6046, 
    "lastErupYear": "Unknown", 
    "evidence": "Evidence Credible", 
    "subregion": "Northern Chile, Bolivia and Argentina", 
    "pop030": 294, 
    "pop100": 9092, 
    "name": "Acamarachi", 
    "country": "Chile", 
    "pop010": 7, 
    "pop005": 0, 
    "longitude": -67.62, 
    "region2": "South America", 
    "latitude": -23.3, 
    "type": "Stratovolcano"
  }, 
  {
    "elevation": 3976, 
    "lastErupYear": "1972", 
    "evidence": "Eruption Observed", 
    "subregion": "Guatemala", 
    "pop030": 1042836, 
    "pop100": 7634778, 
    "name": "Acatenango", 
    "country": "Guatemala", 
    "pop010": 60730, 
    "pop005": 4329, 
    "longitude": -90.876, 
    "region2": "M\u00e9xico and Central America", 
    "latitude": 14.501, 
    "type": "Stratovolcano(es)"
  }, 
  {
    "elevation": 1683, 
    "lastErupYear": "-2080", 
    "evidence": "Eruption Dated", 
    "subregion": "Turkey", 
    "pop030": 218469, 
    "pop100": 2253483, 
    "name": "Acigol-Nevsehir", 
    "country": "Turkey", 
    "pop010": 127863, 
    "pop005": 127863, 
    "longitude": 34.621, 
    "region2": "Mediterranean and Western Asia", 
    "latitude": 38.537, 
    "type": "Caldera"
  }, 
  {
    "elevation": 3742, 
    "lastErupYear": "950", 
    "evidence": "Eruption Dated", 
    "subregion": "USA (Washington)", 
    "pop030": 4019, 
    "pop100": 393303, 
    "name": "Adams", 
    "country": "United States", 
    "pop010": 70, 
    "pop005": 0, 
    "longitude": -121.49, 
    "region2": "Canada and Western USA", 
    "latitude": 46.206, 
    "type": "Stratovolcano"
  }, 
  {
    "elevation": -39, 
    "lastErupYear": "-50", 
    "evidence": "Eruption Dated", 
    "subregion": "Pacific Ocean (central)", 
    "pop030": 0, 
    "pop100": 44, 
    "name": "Adams Seamount", 
    "country": "Undersea Features", 
    "pop010": 0, 
    "pop005": 0, 
    "longitude": -129.27, 
    "region2": "Hawaii and Pacific Ocean", 
    "latitude": -25.37, 
    "type": "Submarine"
  }, 
  {
    "elevation": 1728, 
    "lastErupYear": "1996", 
    "evidence": "Eruption Observed", 
    "subregion": "Honshu", 
    "pop030": 717078, 
    "pop100": 5024654, 
    "name": "Adatarayama", 
    "country": "Japan", 
    "pop010": 3936, 
    "pop005": 428, 
    "longitude": 140.281, 
    "region2": "Japan, Taiwan, Marianas", 
    "latitude": 37.647, 
    "type": "Stratovolcano(es)"
  }, 
  {
    "elevation": 1733, 
    "lastErupYear": "Unknown", 
    "evidence": "Evidence Credible", 
    "subregion": "Africa (northeastern) and Red Sea", 
    "pop030": 18645, 
    "pop100": 1242922, 
    "name": "Adwa", 
    "country": "Ethiopia", 
    "pop010": 485, 
    "pop005": 101, 
    "longitude": 40.84, 
    "region2": "Africa and Red Sea", 
    "latitude": 10.07, 
    "type": "Stratovolcano"
  }, 
  {
    "elevation": 1250, 
    "lastErupYear": "Unknown", 
    "evidence": "Evidence Uncertain", 
    "subregion": "Africa (northeastern) and Red Sea", 
    "pop030": 8611, 
    "pop100": 161009, 
    "name": "Afdera", 
    "country": "Ethiopia", 
    "pop010": 6042, 
    "pop005": 51, 
    "longitude": 40.853, 
    "region2": "Africa and Red Sea", 
    "latitude": 13.088, 
    "type": "Stratovolcano"
  }, 
  {
    "elevation": 965, 
    "lastErupYear": "1917", 
    "evidence": "Eruption Observed", 
    "subregion": "Izu, Volcano, and Mariana Islands", 
    "pop030": 0, 
    "pop100": 0, 
    "name": "Agrigan", 
    "country": "United States", 
    "pop010": 0, 
    "pop005": 0, 
    "longitude": 145.67, 
    "region2": "Japan, Taiwan, Marianas", 
    "latitude": 18.77, 
    "type": "Stratovolcano"
  }, 
  {
    "elevation": 3760, 
    "lastErupYear": "Unknown", 
    "evidence": "Evidence Credible", 
    "subregion": "Guatemala", 
    "pop030": 2530449, 
    "pop100": 7441660, 
    "name": "Agua", 
    "country": "Guatemala", 
    "pop010": 114404, 
    "pop005": 9890, 
    "longitude": -90.743, 
    "region2": "M\u00e9xico and Central America", 
    "latitude": 14.465, 
    "type": "Stratovolcano"
  }, 
  {
    "elevation": 947, 
    "lastErupYear": "1564", 
    "evidence": "Eruption Observed", 
    "subregion": "Azores", 
    "pop030": 113131, 
    "pop100": 119653, 
    "name": "Agua de Pau", 
    "country": "Portugal", 
    "pop010": 17272, 
    "pop005": 406, 
    "longitude": -25.47, 
    "region2": "Atlantic Ocean", 
    "latitude": 37.77, 
    "type": "Stratovolcano"
  }, 
  {
    "elevation": 2546, 
    "lastErupYear": "-1250", 
    "evidence": "Eruption Dated", 
    "subregion": "Southern Chile and Argentina", 
    "pop030": 103, 
    "pop100": 5698, 
    "name": "Aguilera", 
    "country": "Chile", 
    "pop010": 0, 
    "pop005": 0, 
    "longitude": -73.75, 
    "region2": "South America", 
    "latitude": -50.33, 
    "type": "Stratovolcano"
  }, 
  {
    "elevation": 2995, 
    "lastErupYear": "1964", 
    "evidence": "Eruption Observed", 
    "subregion": "Lesser Sunda Islands", 
    "pop030": 968381, 
    "pop100": 4550176, 
    "name": "Agung", 
    "country": "Indonesia", 
    "pop010": 76781, 
    "pop005": 5657, 
    "longitude": 115.508, 
    "region2": "Indonesia", 
    "latitude": -8.343, 
    "type": "Stratovolcano"
  }, 
  {
    "elevation": -75, 
    "lastErupYear": "2014", 
    "evidence": "Eruption Dated", 
    "subregion": "Izu, Volcano, and Mariana Islands", 
    "pop030": 0, 
    "pop100": 0, 
    "name": "Ahyi", 
    "country": "United States", 
    "pop010": 0, 
    "pop005": 0, 
    "longitude": 145.03, 
    "region2": "Japan, Taiwan, Marianas", 
    "latitude": 20.42, 
    "type": "Submarine"
  }, 
  {
    "elevation": 1117, 
    "lastErupYear": "2017", 
    "evidence": "Eruption Observed", 
    "subregion": "Ryukyu Islands and Kyushu", 
    "pop030": 905254, 
    "pop100": 2610033, 
    "name": "Aira", 
    "country": "Japan", 
    "pop010": 113874, 
    "pop005": 4918, 
    "longitude": 130.657, 
    "region2": "Japan, Taiwan, Marianas", 
    "latitude": 31.593, 
    "type": "Caldera"
  }, 
  {
    "elevation": 1180, 
    "lastErupYear": "1996", 
    "evidence": "Eruption Observed", 
    "subregion": "Kamchatka Peninsula", 
    "pop030": 615, 
    "pop100": 12484, 
    "name": "Akademia Nauk", 
    "country": "Russia", 
    "pop010": 3, 
    "pop005": 3, 
    "longitude": 159.45, 
    "region2": "Kamchatka and Mainland Asia", 
    "latitude": 53.98, 
    "type": "Stratovolcano(es)"
  }, 
  {
    "elevation": 1828, 
    "lastErupYear": "Unknown", 
    "evidence": "Evidence Uncertain", 
    "subregion": "Honshu", 
    "pop030": 1116366, 
    "pop100": 16718375, 
    "name": "Akagisan", 
    "country": "Japan", 
    "pop010": 4538, 
    "pop005": 961, 
    "longitude": 139.193, 
    "region2": "Japan, Taiwan, Marianas", 
    "latitude": 36.56, 
    "type": "Stratovolcano"
  }, 
  {
    "elevation": 1499, 
    "lastErupYear": "2008", 
    "evidence": "Eruption Observed", 
    "subregion": "Hokkaido", 
    "pop030": 9756, 
    "pop100": 929538, 
    "name": "Akan", 
    "country": "Japan", 
    "pop010": 2062, 
    "pop005": 2062, 
    "longitude": 144.013, 
    "region2": "Japan, Taiwan, Marianas", 
    "latitude": 43.384, 
    "type": "Caldera"
  }, 
  {
    "elevation": 2109, 
    "lastErupYear": "Unknown", 
    "evidence": "Evidence Credible", 
    "subregion": "Honshu", 
    "pop030": 0, 
    "pop100": 0, 
    "name": "Akandanayama", 
    "country": "Japan", 
    "pop010": 0, 
    "pop005": 0, 
    "longitude": 137.573, 
    "region2": "Japan, Taiwan, Marianas", 
    "latitude": 36.2, 
    "type": "Stratovolcano"
  }, 
  {
    "elevation": 1956, 
    "lastErupYear": "Unknown", 
    "evidence": "Evidence Uncertain", 
    "subregion": "Kamchatka Peninsula", 
    "pop030": 93, 
    "pop100": 9232, 
    "name": "Akhtang", 
    "country": "Russia", 
    "pop010": 0, 
    "pop005": 0, 
    "longitude": 158.65, 
    "region2": "Kamchatka and Mainland Asia", 
    "latitude": 55.43, 
    "type": "Shield"
  }, 
  {
    "elevation": 1637, 
    "lastErupYear": "1971", 
    "evidence": "Eruption Observed", 
    "subregion": "Honshu", 
    "pop030": 216708, 
    "pop100": 2521611, 
    "name": "Akita-Komagatake", 
    "country": "Japan", 
    "pop010": 3864, 
    "pop005": 376, 
    "longitude": 140.799, 
    "region2": "Japan, Taiwan, Marianas", 
    "latitude": 39.761, 
    "type": "Stratovolcano(es)"
  }, 
  {
    "elevation": 1366, 
    "lastErupYear": "1997", 
    "evidence": "Eruption Observed", 
    "subregion": "Honshu", 
    "pop030": 55493, 
    "pop100": 3122037, 
    "name": "Akita-Yakeyama", 
    "country": "Japan", 
    "pop010": 721, 
    "pop005": 127, 
    "longitude": 140.757, 
    "region2": "Japan, Taiwan, Marianas", 
    "latitude": 39.964, 
    "type": "Stratovolcano"
  }, 
  {
    "elevation": 584, 
    "lastErupYear": "Unknown", 
    "evidence": "Evidence Uncertain", 
    "subregion": "Ryukyu Islands and Kyushu", 
    "pop030": 199, 
    "pop100": 749, 
    "name": "Akuseki-jima", 
    "country": "Japan", 
    "pop010": 52, 
    "pop005": 52, 
    "longitude": 129.597, 
    "region2": "Japan, Taiwan, Marianas", 
    "latitude": 29.461, 
    "type": "Stratovolcano(es)"
  }, 
  {
    "elevation": 1303, 
    "lastErupYear": "1992", 
    "evidence": "Eruption Observed", 
    "subregion": "Aleutian Islands", 
    "pop030": 233, 
    "pop100": 4361, 
    "name": "Akutan", 
    "country": "United States", 
    "pop010": 24, 
    "pop005": 0, 
    "longitude": -165.986, 
    "region2": "Alaska", 
    "latitude": 54.134, 
    "type": "Stratovolcano"
  }, 
  {
    "elevation": 2285, 
    "lastErupYear": "2016", 
    "evidence": "Eruption Observed", 
    "subregion": "Kuril Islands", 
    "pop030": 64, 
    "pop100": 2887, 
    "name": "Alaid", 
    "country": "Russia", 
    "pop010": 64, 
    "pop005": 0, 
    "longitude": 155.565, 
    "region2": "Kuril Islands", 
    "latitude": 50.861, 
    "type": "Stratovolcano"
  }, 
  {
    "elevation": 744, 
    "lastErupYear": "870", 
    "evidence": "Eruption Dated", 
    "subregion": "Izu, Volcano, and Mariana Islands", 
    "pop030": 0, 
    "pop100": 0, 
    "name": "Alamagan", 
    "country": "United States", 
    "pop010": 0, 
    "pop005": 0, 
    "longitude": 145.83, 
    "region2": "Japan, Taiwan, Marianas", 
    "latitude": 17.6, 
    "type": "Stratovolcano"
  }, 
  {
    "elevation": 1496, 
    "lastErupYear": "1915", 
    "evidence": "Eruption Observed", 
    "subregion": "Africa (northeastern) and Red Sea", 
    "pop030": 13459, 
    "pop100": 330411, 
    "name": "Alayta", 
    "country": "Ethiopia", 
    "pop010": 925, 
    "pop005": 156, 
    "longitude": 40.573, 
    "region2": "Africa and Red Sea", 
    "latitude": 12.888, 
    "type": "Shield"
  }, 
  {
    "elevation": 1130, 
    "lastErupYear": "1993", 
    "evidence": "Eruption Observed", 
    "subregion": "Galapagos Islands", 
    "pop030": 388, 
    "pop100": 10756, 
    "name": "Alcedo", 
    "country": "Ecuador", 
    "pop010": 290, 
    "pop005": 290, 
    "longitude": -91.12, 
    "region2": "South America", 
    "latitude": -0.43, 
    "type": "Shield"
  }, 
  {
    "elevation": 988, 
    "lastErupYear": "Unknown", 
    "evidence": "Evidence Credible", 
    "subregion": "Africa (northeastern) and Red Sea", 
    "pop030": 8424, 
    "pop100": 278270, 
    "name": "Ale Bagu", 
    "country": "Ethiopia", 
    "pop010": 919, 
    "pop005": 2, 
    "longitude": 40.631, 
    "region2": "Africa and Red Sea", 
    "latitude": 13.512, 
    "type": "Stratovolcano"
  }, 
  {
    "elevation": 904, 
    "lastErupYear": "Unknown", 
    "evidence": "Evidence Credible", 
    "subregion": "Africa (northeastern) and Red Sea", 
    "pop030": 25942, 
    "pop100": 1216179, 
    "name": "Alid", 
    "country": "Eritrea", 
    "pop010": 2447, 
    "pop005": 517, 
    "longitude": 39.92, 
    "region2": "Africa and Red Sea", 
    "latitude": 14.88, 
    "type": "Stratovolcano"
  }, 
  {
    "elevation": 4267, 
    "lastErupYear": "-2450", 
    "evidence": "Eruption Dated", 
    "subregion": "Ecuador", 
    "pop030": 0, 
    "pop100": 0, 
    "name": "Aliso", 
    "country": "Ecuador", 
    "pop010": 0, 
    "pop005": 0, 
    "longitude": -78.0, 
    "region2": "South America", 
    "latitude": -0.53, 
    "type": "Stratovolcano"
  }, 
  {
    "elevation": 2217, 
    "lastErupYear": "Unknown", 
    "evidence": "Evidence Credible", 
    "subregion": "Canada", 
    "pop030": 47, 
    "pop100": 20636, 
    "name": "Alligator Lake", 
    "country": "Canada", 
    "pop010": 0, 
    "pop005": 0, 
    "longitude": -135.42, 
    "region2": "Canada and Western USA", 
    "latitude": 60.42, 
    "type": "Volcanic field"
  }, 
  {
    "elevation": 3173, 
    "lastErupYear": "1818", 
    "evidence": "Eruption Observed", 
    "subregion": "Guatemala", 
    "pop030": 1126942, 
    "pop100": 6828403, 
    "name": "Almolonga", 
    "country": "Guatemala", 
    "pop010": 287487, 
    "pop005": 91323, 
    "longitude": -91.519, 
    "region2": "M\u00e9xico and Central America", 
    "latitude": 14.797, 
    "type": "Stratovolcano"
  }, 
  {
    "elevation": 2598, 
    "lastErupYear": "1600", 
    "evidence": "Eruption Dated", 
    "subregion": "Kamchatka Peninsula", 
    "pop030": 3, 
    "pop100": 10679, 
    "name": "Alney-Chashakondzha", 
    "country": "Russia", 
    "pop010": 0, 
    "pop005": 0, 
    "longitude": 159.65, 
    "region2": "Kamchatka and Mainland Asia", 
    "latitude": 56.7, 
    "type": "Stratovolcano"
  }, 
  {
    "elevation": 1853, 
    "lastErupYear": "Unknown", 
    "evidence": "Evidence Uncertain", 
    "subregion": "Kamchatka Peninsula", 
    "pop030": 120, 
    "pop100": 1561, 
    "name": "Alngey", 
    "country": "Russia", 
    "pop010": 0, 
    "pop005": 0, 
    "longitude": 160.4, 
    "region2": "Kamchatka and Mainland Asia", 
    "latitude": 57.7, 
    "type": "Stratovolcano"
  }, 
  {
    "elevation": 578, 
    "lastErupYear": "2008", 
    "evidence": "Eruption Observed", 
    "subregion": "Africa (northeastern) and Red Sea", 
    "pop030": 11209, 
    "pop100": 478054, 
    "name": "Alu-Dalafilla", 
    "country": "Ethiopia", 
    "pop010": 9, 
    "pop005": 0, 
    "longitude": 40.553, 
    "region2": "Africa and Red Sea", 
    "latitude": 13.793, 
    "type": "Fissure vent(s)"
  }, 
  {
    "elevation": 2335, 
    "lastErupYear": "-50", 
    "evidence": "Eruption Dated", 
    "subregion": "Africa (northeastern) and Red Sea", 
    "pop030": 314216, 
    "pop100": 6813710, 
    "name": "Alutu", 
    "country": "Ethiopia", 
    "pop010": 25619, 
    "pop005": 6011, 
    "longitude": 38.78, 
    "region2": "Africa and Red Sea", 
    "latitude": 7.77, 
    "type": "Stratovolcano"
  }, 
  {
    "elevation": 488, 
    "lastErupYear": "1796", 
    "evidence": "Eruption Observed", 
    "subregion": "Aleutian Islands", 
    "pop030": 0, 
    "pop100": 1345, 
    "name": "Amak", 
    "country": "United States", 
    "pop010": 0, 
    "pop005": 0, 
    "longitude": -163.149, 
    "region2": "Alaska", 
    "latitude": 55.424, 
    "type": "Stratovolcano"
  }, 
  {
    "elevation": 1030, 
    "lastErupYear": "Unknown", 
    "evidence": "Evidence Credible", 
    "subregion": "Halmahera", 
    "pop030": 26015, 
    "pop100": 92417, 
    "name": "Amasing", 
    "country": "Indonesia", 
    "pop010": 803, 
    "pop005": 59, 
    "longitude": 127.48, 
    "region2": "Indonesia", 
    "latitude": -0.53, 
    "type": "Stratovolcano(es)"
  }, 
  {
    "elevation": 2329, 
    "lastErupYear": "Unknown", 
    "evidence": "Unrest / Holocene", 
    "subregion": "Luzon", 
    "pop030": 55724, 
    "pop100": 4652400, 
    "name": "Ambalatungan Group", 
    "country": "Philippines", 
    "pop010": 3803, 
    "pop005": 493, 
    "longitude": 121.1, 
    "region2": "Philippines and SE Asia", 
    "latitude": 17.32, 
    "type": "Compound"
  }, 
  {
    "elevation": 1795, 
    "lastErupYear": "2005", 
    "evidence": "Eruption Observed", 
    "subregion": "Sulawesi", 
    "pop030": 319137, 
    "pop100": 1730602, 
    "name": "Ambang", 
    "country": "Indonesia", 
    "pop010": 46469, 
    "pop005": 9155, 
    "longitude": 124.42, 
    "region2": "Indonesia", 
    "latitude": 0.75, 
    "type": "Complex"
  }, 
  {
    "elevation": 450, 
    "lastErupYear": "-350", 
    "evidence": "Eruption Dated", 
    "subregion": "New Ireland", 
    "pop030": 9779, 
    "pop100": 24367, 
    "name": "Ambitle", 
    "country": "Papua New Guinea", 
    "pop010": 9195, 
    "pop005": 1643, 
    "longitude": 153.65, 
    "region2": "Melanesia and Australia", 
    "latitude": -4.08, 
    "type": "Stratovolcano"
  }, 
  {
    "elevation": 1475, 
    "lastErupYear": "Unknown", 
    "evidence": "Evidence Credible", 
    "subregion": "Indian Ocean (western)", 
    "pop030": 51426, 
    "pop100": 408436, 
    "name": "Ambre-Bobaomby", 
    "country": "Madagascar", 
    "pop010": 20396, 
    "pop005": 20396, 
    "longitude": 49.15, 
    "region2": "Middle East and Indian Ocean", 
    "latitude": -12.6, 
    "type": "Volcanic field"
  }, 
  {
    "elevation": 1334, 
    "lastErupYear": "2017", 
    "evidence": "Eruption Observed", 
    "subregion": "Vanuatu", 
    "pop030": 10826, 
    "pop100": 63999, 
    "name": "Ambrym", 
    "country": "Vanuatu", 
    "pop010": 186, 
    "pop005": 9, 
    "longitude": 168.12, 
    "region2": "Melanesia and Australia", 
    "latitude": -16.25, 
    "type": "Pyroclastic shield"
  }, 
  {
    "elevation": 376, 
    "lastErupYear": "Unknown", 
    "evidence": "Unrest / Holocene", 
    "subregion": "Luzon", 
    "pop030": 1685378, 
    "pop100": 10172750, 
    "name": "Amorong", 
    "country": "Philippines", 
    "pop010": 139023, 
    "pop005": 24489, 
    "longitude": 120.805, 
    "region2": "Philippines and SE Asia", 
    "latitude": 15.828, 
    "type": "Lava dome(s)"
  }, 
  {
    "elevation": 881, 
    "lastErupYear": "Unknown", 
    "evidence": "Evidence Credible", 
    "subregion": "Indian Ocean (southern)", 
    "pop030": 0, 
    "pop100": 0, 
    "name": "Amsterdam Island", 
    "country": "France", 
    "pop010": 0, 
    "pop005": 0, 
    "longitude": 77.52, 
    "region2": "Middle East and Indian Ocean", 
    "latitude": -37.83, 
    "type": "Stratovolcano"
  }, 
  {
    "elevation": 1066, 
    "lastErupYear": "1997", 
    "evidence": "Eruption Observed", 
    "subregion": "Aleutian Islands", 
    "pop030": 0, 
    "pop100": 0, 
    "name": "Amukta", 
    "country": "United States", 
    "pop010": 0, 
    "pop005": 0, 
    "longitude": -171.252, 
    "region2": "Alaska", 
    "latitude": 52.5, 
    "type": "Stratovolcano"
  }, 
  {
    "elevation": 790, 
    "lastErupYear": "2008", 
    "evidence": "Eruption Observed", 
    "subregion": "Izu, Volcano, and Mariana Islands", 
    "pop030": 0, 
    "pop100": 0, 
    "name": "Anatahan", 
    "country": "United States", 
    "pop010": 0, 
    "pop005": 0, 
    "longitude": 145.67, 
    "region2": "Japan, Taiwan, Marianas", 
    "latitude": 16.35, 
    "type": "Stratovolcano"
  }, 
  {
    "elevation": 1828, 
    "lastErupYear": "Unknown", 
    "evidence": "Evidence Uncertain", 
    "subregion": "Kamchatka Peninsula", 
    "pop030": 56, 
    "pop100": 5933, 
    "name": "Anaun", 
    "country": "Russia", 
    "pop010": 4, 
    "pop005": 2, 
    "longitude": 158.83, 
    "region2": "Kamchatka and Mainland Asia", 
    "latitude": 56.32, 
    "type": "Stratovolcano"
  }, 
  {
    "elevation": 4713, 
    "lastErupYear": "1490", 
    "evidence": "Eruption Dated", 
    "subregion": "Peru", 
    "pop030": 16541, 
    "pop100": 171897, 
    "name": "Andahua-Orcopampa", 
    "country": "Peru", 
    "pop010": 10317, 
    "pop005": 10317, 
    "longitude": -72.33, 
    "region2": "South America", 
    "latitude": -15.42, 
    "type": "Pyroclastic cone(s)"
  }, 
  {
    "elevation": 2978, 
    "lastErupYear": "Unknown", 
    "evidence": "Evidence Uncertain", 
    "subregion": "Antarctica and South Sandwich Islands", 
    "pop030": 0, 
    "pop100": 0, 
    "name": "Andrus", 
    "country": "Antarctica", 
    "pop010": 0, 
    "pop005": 0, 
    "longitude": -132.33, 
    "region2": "Antarctica", 
    "latitude": -75.8, 
    "type": "Shield(s)"
  }, 
  {
    "elevation": 852, 
    "lastErupYear": "Unknown", 
    "evidence": "Evidence Uncertain", 
    "subregion": "Vanuatu", 
    "pop030": 703, 
    "pop100": 22731, 
    "name": "Aneityum", 
    "country": "Vanuatu", 
    "pop010": 692, 
    "pop005": 176, 
    "longitude": 169.78, 
    "region2": "Melanesia and Australia", 
    "latitude": -20.2, 
    "type": "Stratovolcano(es)"
  }, 
  {
    "elevation": 1341, 
    "lastErupYear": "1931", 
    "evidence": "Eruption Observed", 
    "subregion": "Alaska Peninsula", 
    "pop030": 36, 
    "pop100": 479, 
    "name": "Aniakchak", 
    "country": "United States", 
    "pop010": 0, 
    "pop005": 0, 
    "longitude": -158.17, 
    "region2": "Alaska", 
    "latitude": 56.88, 
    "type": "Caldera"
  }, 
  {
    "elevation": 2878, 
    "lastErupYear": "Unknown", 
    "evidence": "Evidence Credible", 
    "subregion": "Indian Ocean (western)", 
    "pop030": 41916, 
    "pop100": 637393, 
    "name": "Ankaizina Field", 
    "country": "Madagascar", 
    "pop010": 9628, 
    "pop005": 9628, 
    "longitude": 48.67, 
    "region2": "Middle East and Indian Ocean", 
    "latitude": -14.3, 
    "type": "Pyroclastic cone(s)"
  }, 
  {
    "elevation": 2644, 
    "lastErupYear": "Unknown", 
    "evidence": "Evidence Credible", 
    "subregion": "Indian Ocean (western)", 
    "pop030": 413328, 
    "pop100": 5184370, 
    "name": "Ankaratra Field", 
    "country": "Madagascar", 
    "pop010": 123192, 
    "pop005": 123192, 
    "longitude": 47.2, 
    "region2": "Middle East and Indian Ocean", 
    "latitude": -19.4, 
    "type": "Pyroclastic cone(s)"
  }, 
  {
    "elevation": 1990, 
    "lastErupYear": "-230", 
    "evidence": "Eruption Dated", 
    "subregion": "Central Chile and Argentina", 
    "pop030": 5986, 
    "pop100": 530586, 
    "name": "Antillanca Group", 
    "country": "Chile", 
    "pop010": 521, 
    "pop005": 87, 
    "longitude": -72.153, 
    "region2": "South America", 
    "latitude": -40.771, 
    "type": "Stratovolcano(es)"
  }, 
  {
    "elevation": 5753, 
    "lastErupYear": "1802", 
    "evidence": "Eruption Observed", 
    "subregion": "Ecuador", 
    "pop030": 56154, 
    "pop100": 3314142, 
    "name": "Antisana", 
    "country": "Ecuador", 
    "pop010": 2220, 
    "pop005": 232, 
    "longitude": -78.141, 
    "region2": "South America", 
    "latitude": -0.481, 
    "type": "Stratovolcano"
  }, 
  {
    "elevation": 3495, 
    "lastErupYear": "Unknown", 
    "evidence": "Evidence Uncertain", 
    "subregion": "Northern Chile, Bolivia and Argentina", 
    "pop030": 257, 
    "pop100": 4295, 
    "name": "Antofagasta Volcanic Field", 
    "country": "Argentina", 
    "pop010": 188, 
    "pop005": 188, 
    "longitude": -67.4, 
    "region2": "South America", 
    "latitude": -26.12, 
    "type": "Pyroclastic cone(s)"
  }, 
  {
    "elevation": 2979, 
    "lastErupYear": "1869", 
    "evidence": "Eruption Observed", 
    "subregion": "Central Chile and Argentina", 
    "pop030": 3872, 
    "pop100": 381623, 
    "name": "Antuco", 
    "country": "Chile", 
    "pop010": 474, 
    "pop005": 117, 
    "longitude": -71.349, 
    "region2": "South America", 
    "latitude": -37.406, 
    "type": "Stratovolcano"
  }, 
  {
    "elevation": 1496, 
    "lastErupYear": "2011", 
    "evidence": "Eruption Observed", 
    "subregion": "Vanuatu", 
    "pop030": 4326, 
    "pop100": 73308, 
    "name": "Aoba", 
    "country": "Vanuatu", 
    "pop010": 1279, 
    "pop005": 73, 
    "longitude": 167.83, 
    "region2": "Melanesia and Australia", 
    "latitude": -15.4, 
    "type": "Shield"
  }, 
  {
    "elevation": 423, 
    "lastErupYear": "1785", 
    "evidence": "Eruption Observed", 
    "subregion": "Izu, Volcano, and Mariana Islands", 
    "pop030": 232, 
    "pop100": 8559, 
    "name": "Aogashima", 
    "country": "Japan", 
    "pop010": 232, 
    "pop005": 232, 
    "longitude": 139.759, 
    "region2": "Japan, Taiwan, Marianas", 
    "latitude": 32.458, 
    "type": "Stratovolcano"
  }, 
  {
    "elevation": 1210, 
    "lastErupYear": "-590", 
    "evidence": "Eruption Dated", 
    "subregion": "Southern Chile and Argentina", 
    "pop030": 4474, 
    "pop100": 354002, 
    "name": "Apagado", 
    "country": "Chile", 
    "pop010": 44, 
    "pop005": 5, 
    "longitude": -72.58, 
    "region2": "South America", 
    "latitude": -41.88, 
    "type": "Pyroclastic cone"
  }, 
  {
    "elevation": 2036, 
    "lastErupYear": "Unknown", 
    "evidence": "Evidence Credible", 
    "subregion": "El Salvador and Honduras", 
    "pop030": 1113282, 
    "pop100": 6215853, 
    "name": "Apaneca Range", 
    "country": "El Salvador", 
    "pop010": 151502, 
    "pop005": 11141, 
    "longitude": -89.786, 
    "region2": "M\u00e9xico and Central America", 
    "latitude": 13.891, 
    "type": "Stratovolcano(es)"
  }, 
  {
    "elevation": 700, 
    "lastErupYear": "Unknown", 
    "evidence": "Evidence Credible", 
    "subregion": "El Salvador and Honduras", 
    "pop030": 687849, 
    "pop100": 6372608, 
    "name": "Apastepeque Field", 
    "country": "El Salvador", 
    "pop010": 377730, 
    "pop005": 377730, 
    "longitude": -88.77, 
    "region2": "M\u00e9xico and Central America", 
    "latitude": 13.72, 
    "type": "Volcanic field"
  }, 
  {
    "elevation": 2938, 
    "lastErupYear": "Unknown", 
    "evidence": "Unrest / Holocene", 
    "subregion": "Mindanao", 
    "pop030": 767800, 
    "pop100": 7768291, 
    "name": "Apo", 
    "country": "Philippines", 
    "pop010": 5431, 
    "pop005": 1355, 
    "longitude": 125.269, 
    "region2": "Philippines and SE Asia", 
    "latitude": 6.989, 
    "type": "Stratovolcano"
  }, 
  {
    "elevation": 518, 
    "lastErupYear": "-50", 
    "evidence": "Eruption Dated", 
    "subregion": "Nicaragua", 
    "pop030": 1342581, 
    "pop100": 3445854, 
    "name": "Apoyeque", 
    "country": "Nicaragua", 
    "pop010": 116718, 
    "pop005": 2369, 
    "longitude": -86.342, 
    "region2": "M\u00e9xico and Central America", 
    "latitude": 12.242, 
    "type": "Pyroclastic shield"
  }, 
  {
    "elevation": 6095, 
    "lastErupYear": "Unknown", 
    "evidence": "Evidence Credible", 
    "subregion": "Northern Chile, Bolivia and Argentina", 
    "pop030": 94, 
    "pop100": 4803, 
    "name": "Aracar", 
    "country": "Argentina", 
    "pop010": 0, 
    "pop005": 0, 
    "longitude": -67.783, 
    "region2": "South America", 
    "latitude": -24.29, 
    "type": "Stratovolcano"
  }, 
  {
    "elevation": 4095, 
    "lastErupYear": "Unknown", 
    "evidence": "Evidence Credible", 
    "subregion": "Western Asia", 
    "pop030": 150143, 
    "pop100": 3046562, 
    "name": "Aragats", 
    "country": "Armenia", 
    "pop010": 163, 
    "pop005": 0, 
    "longitude": 44.2, 
    "region2": "Mediterranean and Western Asia", 
    "latitude": 40.53, 
    "type": "Stratovolcano"
  }, 
  {
    "elevation": 181, 
    "lastErupYear": "Unknown", 
    "evidence": "Evidence Credible", 
    "subregion": "El Salvador and Honduras", 
    "pop030": 699308, 
    "pop100": 3009012, 
    "name": "Aramuaca", 
    "country": "El Salvador", 
    "pop010": 132109, 
    "pop005": 15772, 
    "longitude": -88.105, 
    "region2": "M\u00e9xico and Central America", 
    "latitude": 13.428, 
    "type": "Maar"
  }, 
  {
    "elevation": 5165, 
    "lastErupYear": "1840", 
    "evidence": "Eruption Observed", 
    "subregion": "Turkey", 
    "pop030": 135563, 
    "pop100": 2811646, 
    "name": "Ararat", 
    "country": "Turkey", 
    "pop010": 1239, 
    "pop005": 25, 
    "longitude": 44.3, 
    "region2": "Mediterranean and Western Asia", 
    "latitude": 39.7, 
    "type": "Stratovolcano"
  }, 
  {
    "elevation": 1026, 
    "lastErupYear": "Unknown", 
    "evidence": "Evidence Uncertain", 
    "subregion": "Luzon", 
    "pop030": 2805269, 
    "pop100": 27216491, 
    "name": "Arayat", 
    "country": "Philippines", 
    "pop010": 190674, 
    "pop005": 7846, 
    "longitude": 120.742, 
    "region2": "Philippines and SE Asia", 
    "latitude": 15.2, 
    "type": "Stratovolcano"
  }, 
  {
    "elevation": 298, 
    "lastErupYear": "1978", 
    "evidence": "Eruption Observed", 
    "subregion": "Africa (northeastern) and Red Sea", 
    "pop030": 6898, 
    "pop100": 560146, 
    "name": "Ardoukoba", 
    "country": "Djibouti", 
    "pop010": 2895, 
    "pop005": 2895, 
    "longitude": 42.47, 
    "region2": "Africa and Red Sea", 
    "latitude": 11.58, 
    "type": "Fissure vent(s)"
  }, 
  {
    "elevation": 1670, 
    "lastErupYear": "2010", 
    "evidence": "Eruption Observed", 
    "subregion": "Costa Rica", 
    "pop030": 96512, 
    "pop100": 3027485, 
    "name": "Arenal", 
    "country": "Costa Rica", 
    "pop010": 15643, 
    "pop005": 3429, 
    "longitude": -84.703, 
    "region2": "M\u00e9xico and Central America", 
    "latitude": 10.463, 
    "type": "Stratovolcano"
  }, 
  {
    "elevation": 3437, 
    "lastErupYear": "1979", 
    "evidence": "Eruption Observed", 
    "subregion": "Southern Chile and Argentina", 
    "pop030": 0, 
    "pop100": 6536, 
    "name": "Arenales", 
    "country": "Chile", 
    "pop010": 0, 
    "pop005": 0, 
    "longitude": -73.48, 
    "region2": "South America", 
    "latitude": -47.2, 
    "type": "Stratovolcano"
  }, 
  {
    "elevation": 3100, 
    "lastErupYear": "500", 
    "evidence": "Eruption Observed", 
    "subregion": "Middle East (southern)", 
    "pop030": 820695, 
    "pop100": 6517834, 
    "name": "Arhab", 
    "country": "Yemen", 
    "pop010": 284443, 
    "pop005": 284443, 
    "longitude": 44.08, 
    "region2": "Middle East and Indian Ocean", 
    "latitude": 15.63, 
    "type": "Volcanic field"
  }, 
  {
    "elevation": 3339, 
    "lastErupYear": "1952", 
    "evidence": "Eruption Observed", 
    "subregion": "Java", 
    "pop030": 4143137, 
    "pop100": 25385433, 
    "name": "Arjuno-Welirang", 
    "country": "Indonesia", 
    "pop010": 53983, 
    "pop005": 2584, 
    "longitude": 112.575, 
    "region2": "Indonesia", 
    "latitude": -7.733, 
    "type": "Stratovolcano"
  }, 
  {
    "elevation": 1677, 
    "lastErupYear": "0", 
    "evidence": "Eruption Dated", 
    "subregion": "China (eastern)", 
    "pop030": 6435, 
    "pop100": 188163, 
    "name": "Arxan-Chaihe", 
    "country": "China", 
    "pop010": 6435, 
    "pop005": 6435, 
    "longitude": 120.8, 
    "region2": "Kamchatka and Mainland Asia", 
    "latitude": 47.45, 
    "type": "Pyroclastic cone(s)"
  }, 
  {
    "elevation": 1910, 
    "lastErupYear": "Unknown", 
    "evidence": "Evidence Credible", 
    "subregion": "Kamchatka Peninsula", 
    "pop030": 34, 
    "pop100": 238467, 
    "name": "Asacha", 
    "country": "Russia", 
    "pop010": 0, 
    "pop005": 0, 
    "longitude": 157.827, 
    "region2": "Kamchatka and Mainland Asia", 
    "latitude": 52.355, 
    "type": "Complex"
  }, 
  {
    "elevation": 2568, 
    "lastErupYear": "2015", 
    "evidence": "Eruption Observed", 
    "subregion": "Honshu", 
    "pop030": 457576, 
    "pop100": 7629353, 
    "name": "Asamayama", 
    "country": "Japan", 
    "pop010": 22371, 
    "pop005": 583, 
    "longitude": 138.523, 
    "region2": "Japan, Taiwan, Marianas", 
    "latitude": 36.406, 
    "type": "Complex"
  }, 
  {
    "elevation": 1338, 
    "lastErupYear": "Unknown", 
    "evidence": "Evidence Credible", 
    "subregion": "Africa (northeastern) and Red Sea", 
    "pop030": 7697, 
    "pop100": 47836, 
    "name": "Asavyo", 
    "country": "Ethiopia", 
    "pop010": 479, 
    "pop005": 84, 
    "longitude": 41.599, 
    "region2": "Africa and Red Sea", 
    "latitude": 13.098, 
    "type": "Shield"
  }, 
  {
    "elevation": 858, 
    "lastErupYear": "Unknown", 
    "evidence": "Evidence Credible", 
    "subregion": "Atlantic Ocean (central)", 
    "pop030": 1149, 
    "pop100": 1149, 
    "name": "Ascension", 
    "country": "United Kingdom", 
    "pop010": 1149, 
    "pop005": 614, 
    "longitude": -14.37, 
    "region2": "Atlantic Ocean", 
    "latitude": -7.95, 
    "type": "Stratovolcano"
  }, 
  {
    "elevation": 1080, 
    "lastErupYear": "1961", 
    "evidence": "Eruption Observed", 
    "subregion": "Iceland (northeastern)", 
    "pop030": 0, 
    "pop100": 13028, 
    "name": "Askja", 
    "country": "Iceland", 
    "pop010": 0, 
    "pop005": 0, 
    "longitude": -16.783, 
    "region2": "Iceland and Arctic Ocean", 
    "latitude": 65.033, 
    "type": "Stratovolcano"
  }, 
  {
    "elevation": 1592, 
    "lastErupYear": "2016", 
    "evidence": "Eruption Observed", 
    "subregion": "Ryukyu Islands and Kyushu", 
    "pop030": 234591, 
    "pop100": 6507519, 
    "name": "Asosan", 
    "country": "Japan", 
    "pop010": 75559, 
    "pop005": 75559, 
    "longitude": 131.104, 
    "region2": "Japan, Taiwan, Marianas", 
    "latitude": 32.884, 
    "type": "Caldera"
  }, 
  {
    "elevation": 987, 
    "lastErupYear": "Unknown", 
    "evidence": "Evidence Credible", 
    "subregion": "Africa (northeastern) and Red Sea", 
    "pop030": 97, 
    "pop100": 181952, 
    "name": "Assab Volcanic Field", 
    "country": "Eritrea", 
    "pop010": 9, 
    "pop005": 9, 
    "longitude": 42.43, 
    "region2": "Africa and Red Sea", 
    "latitude": 12.95, 
    "type": "Volcanic field"
  }, 
  {
    "elevation": 857, 
    "lastErupYear": "1906", 
    "evidence": "Eruption Observed", 
    "subregion": "Izu, Volcano, and Mariana Islands", 
    "pop030": 0, 
    "pop100": 0, 
    "name": "Asuncion", 
    "country": "United States", 
    "pop010": 0, 
    "pop005": 0, 
    "longitude": 145.406, 
    "region2": "Japan, Taiwan, Marianas", 
    "latitude": 19.671, 
    "type": "Stratovolcano"
  }, 
  {
    "elevation": 924, 
    "lastErupYear": "885", 
    "evidence": "Eruption Observed", 
    "subregion": "Ryukyu Islands and Kyushu", 
    "pop030": 171590, 
    "pop100": 1891380, 
    "name": "Ata", 
    "country": "Japan", 
    "pop010": 93134, 
    "pop005": 93134, 
    "longitude": 130.57, 
    "region2": "Japan, Taiwan, Marianas", 
    "latitude": 31.22, 
    "type": "Caldera(s)"
  }, 
  {
    "elevation": 4463, 
    "lastErupYear": "-320", 
    "evidence": "Eruption Dated", 
    "subregion": "Ecuador", 
    "pop030": 1837303, 
    "pop100": 3769593, 
    "name": "Atacazo", 
    "country": "Ecuador", 
    "pop010": 212988, 
    "pop005": 449, 
    "longitude": -78.617, 
    "region2": "South America", 
    "latitude": -0.353, 
    "type": "Stratovolcano"
  }, 
  {
    "elevation": 2918, 
    "lastErupYear": "Unknown", 
    "evidence": "Evidence Credible", 
    "subregion": "Africa (northern)", 
    "pop030": 0, 
    "pop100": 116453, 
    "name": "Atakor Volcanic Field", 
    "country": "Algeria", 
    "pop010": 0, 
    "pop005": 0, 
    "longitude": 5.83, 
    "region2": "Africa and Red Sea", 
    "latitude": 23.33, 
    "type": "Pyroclastic cone(s)"
  }, 
  {
    "elevation": 3535, 
    "lastErupYear": "1853", 
    "evidence": "Eruption Observed", 
    "subregion": "Guatemala", 
    "pop030": 664649, 
    "pop100": 8029695, 
    "name": "Atitlan", 
    "country": "Guatemala", 
    "pop010": 70431, 
    "pop005": 2303, 
    "longitude": -91.186, 
    "region2": "M\u00e9xico and Central America", 
    "latitude": 14.583, 
    "type": "Stratovolcano(es)"
  }, 
  {
    "elevation": 1448, 
    "lastErupYear": "1812", 
    "evidence": "Eruption Observed", 
    "subregion": "Aleutian Islands", 
    "pop030": 207, 
    "pop100": 207, 
    "name": "Atka", 
    "country": "United States", 
    "pop010": 0, 
    "pop005": 0, 
    "longitude": -174.139, 
    "region2": "Alaska", 
    "latitude": 52.331, 
    "type": "Stratovolcano(es)"
  }, 
  {
    "elevation": 1880, 
    "lastErupYear": "Unknown", 
    "evidence": "Evidence Credible", 
    "subregion": "Canada", 
    "pop030": 94, 
    "pop100": 956, 
    "name": "Atlin Volcanic Field", 
    "country": "Canada", 
    "pop010": 0, 
    "pop005": 0, 
    "longitude": -133.32, 
    "region2": "Canada and Western USA", 
    "latitude": 59.68, 
    "type": "Pyroclastic cone(s)"
  }, 
  {
    "elevation": 800, 
    "lastErupYear": "Unknown", 
    "evidence": "Evidence Credible", 
    "subregion": "Mexico", 
    "pop030": 115456, 
    "pop100": 2971490, 
    "name": "Atlixcos", 
    "country": "Mexico", 
    "pop010": 13732, 
    "pop005": 5792, 
    "longitude": -96.526, 
    "region2": "M\u00e9xico and Central America", 
    "latitude": 19.809, 
    "type": "Shield"
  }, 
  {
    "elevation": 5189, 
    "lastErupYear": "Unknown", 
    "evidence": "Evidence Credible", 
    "subregion": "Central Chile and Argentina", 
    "pop030": 1003, 
    "pop100": 676916, 
    "name": "Atuel", 
    "country": "Argentina", 
    "pop010": 297, 
    "pop005": 297, 
    "longitude": -70.05, 
    "region2": "South America", 
    "latitude": -34.65, 
    "type": "Caldera"
  }, 
  {
    "elevation": 260, 
    "lastErupYear": "1350", 
    "evidence": "Eruption Dated", 
    "subregion": "New Zealand", 
    "pop030": 1222436, 
    "pop100": 1446768, 
    "name": "Auckland Field", 
    "country": "New Zealand", 
    "pop010": 1049110, 
    "pop005": 1049110, 
    "longitude": 174.87, 
    "region2": "New Zealand to Fiji", 
    "latitude": -36.9, 
    "type": "Volcanic field"
  }, 
  {
    "elevation": 1252, 
    "lastErupYear": "2006", 
    "evidence": "Eruption Observed", 
    "subregion": "Alaska (southwestern)", 
    "pop030": 0, 
    "pop100": 759, 
    "name": "Augustine", 
    "country": "United States", 
    "pop010": 0, 
    "pop005": 0, 
    "longitude": -153.43, 
    "region2": "Alaska", 
    "latitude": 59.363, 
    "type": "Lava dome(s)"
  }, 
  {
    "elevation": 4980, 
    "lastErupYear": "Unknown", 
    "evidence": "Evidence Uncertain", 
    "subregion": "Peru", 
    "pop030": 12228, 
    "pop100": 173927, 
    "name": "Auquihuato", 
    "country": "Peru", 
    "pop010": 1324, 
    "pop005": 213, 
    "longitude": -73.18, 
    "region2": "South America", 
    "latitude": -15.07, 
    "type": "Pyroclastic cone"
  }, 
  {
    "elevation": 2717, 
    "lastErupYear": "2001", 
    "evidence": "Eruption Observed", 
    "subregion": "Kamchatka Peninsula", 
    "pop030": 180016, 
    "pop100": 270205, 
    "name": "Avachinsky", 
    "country": "Russia", 
    "pop010": 0, 
    "pop005": 0, 
    "longitude": 158.836, 
    "region2": "Kamchatka and Mainland Asia", 
    "latitude": 53.256, 
    "type": "Stratovolcano"
  }, 
  {
    "elevation": 1320, 
    "lastErupYear": "2004", 
    "evidence": "Eruption Observed", 
    "subregion": "Sangihe Islands", 
    "pop030": 52725, 
    "pop100": 58719, 
    "name": "Awu", 
    "country": "Indonesia", 
    "pop010": 22655, 
    "pop005": 6409, 
    "longitude": 125.5, 
    "region2": "Indonesia", 
    "latitude": 3.67, 
    "type": "Stratovolcano"
  }, 
  {
    "elevation": -1410, 
    "lastErupYear": "2015", 
    "evidence": "Eruption Observed", 
    "subregion": "Pacific Ocean (northern)", 
    "pop030": 0, 
    "pop100": 0, 
    "name": "Axial Seamount", 
    "country": "Undersea Features", 
    "pop010": 0, 
    "pop005": 0, 
    "longitude": -130.0, 
    "region2": "Hawaii and Pacific Ocean", 
    "latitude": 45.95, 
    "type": "Submarine"
  }, 
  {
    "elevation": 2145, 
    "lastErupYear": "Unknown", 
    "evidence": "Evidence Credible", 
    "subregion": "Africa (northeastern) and Red Sea", 
    "pop030": 33262, 
    "pop100": 1279214, 
    "name": "Ayelu", 
    "country": "Ethiopia", 
    "pop010": 1375, 
    "pop005": 193, 
    "longitude": 40.702, 
    "region2": "Africa and Red Sea", 
    "latitude": 10.082, 
    "type": "Stratovolcano"
  }, 
  {
    "elevation": 2765, 
    "lastErupYear": "Unknown", 
    "evidence": "Evidence Credible", 
    "subregion": "Russia (southeastern)", 
    "pop030": 142, 
    "pop100": 4532, 
    "name": "Azas Plateau", 
    "country": "Russia", 
    "pop010": 142, 
    "pop005": 142, 
    "longitude": 98.303, 
    "region2": "Kamchatka and Mainland Asia", 
    "latitude": 52.433, 
    "type": "Volcanic field"
  }, 
  {
    "elevation": 4070, 
    "lastErupYear": "-930", 
    "evidence": "Eruption Dated", 
    "subregion": "Colombia", 
    "pop030": 387292, 
    "pop100": 1817609, 
    "name": "Azufral", 
    "country": "Colombia", 
    "pop010": 40657, 
    "pop005": 4334, 
    "longitude": -77.68, 
    "region2": "South America", 
    "latitude": 1.08, 
    "type": "Stratovolcano"
  }, 
  {
    "elevation": 5846, 
    "lastErupYear": "Unknown", 
    "evidence": "Evidence Uncertain", 
    "subregion": "Northern Chile, Bolivia and Argentina", 
    "pop030": 1143, 
    "pop100": 55567, 
    "name": "Azufre", 
    "country": "Chile", 
    "pop010": 58, 
    "pop005": 0, 
    "longitude": -68.237, 
    "region2": "South America", 
    "latitude": -21.787, 
    "type": "Stratovolcano"
  }, 
  {
    "elevation": 3788, 
    "lastErupYear": "1967", 
    "evidence": "Eruption Observed", 
    "subregion": "Central Chile and Argentina", 
    "pop030": 3832, 
    "pop100": 720948, 
    "name": "Azul", 
    "country": "Chile", 
    "pop010": 158, 
    "pop005": 9, 
    "longitude": -70.761, 
    "region2": "South America", 
    "latitude": -35.653, 
    "type": "Stratovolcano"
  }, 
  {
    "elevation": 1640, 
    "lastErupYear": "2008", 
    "evidence": "Eruption Observed", 
    "subregion": "Galapagos Islands", 
    "pop030": 314, 
    "pop100": 1936, 
    "name": "Azul", 
    "country": "Ecuador", 
    "pop010": 220, 
    "pop005": 220, 
    "longitude": -91.408, 
    "region2": "South America", 
    "latitude": -0.92, 
    "type": "Shield"
  }, 
  {
    "elevation": 201, 
    "lastErupYear": "Unknown", 
    "evidence": "Evidence Credible", 
    "subregion": "Nicaragua", 
    "pop030": 10056, 
    "pop100": 211349, 
    "name": "Azul", 
    "country": "Nicaragua", 
    "pop010": 4310, 
    "pop005": 4310, 
    "longitude": -83.87, 
    "region2": "M\u00e9xico and Central America", 
    "latitude": 12.53, 
    "type": "Pyroclastic cone(s)"
  }, 
  {
    "elevation": 1949, 
    "lastErupYear": "1977", 
    "evidence": "Eruption Observed", 
    "subregion": "Honshu", 
    "pop030": 548195, 
    "pop100": 4877648, 
    "name": "Azumayama", 
    "country": "Japan", 
    "pop010": 907, 
    "pop005": 128, 
    "longitude": 140.244, 
    "region2": "Japan, Taiwan, Marianas", 
    "latitude": 37.735, 
    "type": "Stratovolcano(es)"
  }, 
  {
    "elevation": 1080, 
    "lastErupYear": "1924", 
    "evidence": "Eruption Observed", 
    "subregion": "North of Luzon", 
    "pop030": 222, 
    "pop100": 11819, 
    "name": "Babuyan Claro", 
    "country": "Philippines", 
    "pop010": 222, 
    "pop005": 208, 
    "longitude": 121.94, 
    "region2": "Philippines and SE Asia", 
    "latitude": 19.523, 
    "type": "Stratovolcano(es)"
  }, 
  {
    "elevation": 2763, 
    "lastErupYear": "-5800", 
    "evidence": "Eruption Dated", 
    "subregion": "USA (Oregon)", 
    "pop030": 22514, 
    "pop100": 231420, 
    "name": "Bachelor", 
    "country": "United States", 
    "pop010": 24, 
    "pop005": 18, 
    "longitude": -121.688, 
    "region2": "Canada and Western USA", 
    "latitude": 43.979, 
    "type": "Stratovolcano"
  }, 
  {
    "elevation": 1855, 
    "lastErupYear": "2017", 
    "evidence": "Eruption Observed", 
    "subregion": "Bougainville and Solomon Islands", 
    "pop030": 7861, 
    "pop100": 115257, 
    "name": "Bagana", 
    "country": "Papua New Guinea", 
    "pop010": 404, 
    "pop005": 198, 
    "longitude": 155.196, 
    "region2": "Melanesia and Australia", 
    "latitude": -6.137, 
    "type": "Lava cone"
  }, 
  {
    "elevation": 2278, 
    "lastErupYear": "-550", 
    "evidence": "Eruption Dated", 
    "subregion": "Kamchatka Peninsula", 
    "pop030": 1583, 
    "pop100": 87139, 
    "name": "Bakening", 
    "country": "Russia", 
    "pop010": 10, 
    "pop005": 0, 
    "longitude": 158.07, 
    "region2": "Kamchatka and Mainland Asia", 
    "latitude": 53.905, 
    "type": "Stratovolcano"
  }, 
  {
    "elevation": 3285, 
    "lastErupYear": "1880", 
    "evidence": "Eruption Observed", 
    "subregion": "USA (Washington)", 
    "pop030": 8568, 
    "pop100": 1990504, 
    "name": "Baker", 
    "country": "United States", 
    "pop010": 46, 
    "pop005": 0, 
    "longitude": -121.813, 
    "region2": "Canada and Western USA", 
    "latitude": 48.777, 
    "type": "Stratovolcano(es)"
  }, 
  {
    "elevation": 604, 
    "lastErupYear": "Unknown", 
    "evidence": "Evidence Credible", 
    "subregion": "Middle East (southern)", 
    "pop030": 6643, 
    "pop100": 177124, 
    "name": "Bal Haf", 
    "country": "Yemen", 
    "pop010": 5690, 
    "pop005": 5690, 
    "longitude": 48.3, 
    "region2": "Middle East and Indian Ocean", 
    "latitude": 14.067, 
    "type": "Volcanic field"
  }, 
  {
    "elevation": 2715, 
    "lastErupYear": "Unknown", 
    "evidence": "Evidence Credible", 
    "subregion": "Bougainville and Solomon Islands", 
    "pop030": 11904, 
    "pop100": 127928, 
    "name": "Balbi", 
    "country": "Papua New Guinea", 
    "pop010": 505, 
    "pop005": 314, 
    "longitude": 154.98, 
    "region2": "Melanesia and Australia", 
    "latitude": -5.92, 
    "type": "Stratovolcano"
  }, 
  {
    "elevation": 254, 
    "lastErupYear": "Unknown", 
    "evidence": "Evidence Uncertain", 
    "subregion": "Admiralty Islands", 
    "pop030": 982, 
    "pop100": 46898, 
    "name": "Baluan", 
    "country": "Papua New Guinea", 
    "pop010": 248, 
    "pop005": 242, 
    "longitude": 147.28, 
    "region2": "Melanesia and Australia", 
    "latitude": -2.57, 
    "type": "Stratovolcano"
  }, 
  {
    "elevation": 1247, 
    "lastErupYear": "Unknown", 
    "evidence": "Evidence Uncertain", 
    "subregion": "Java", 
    "pop030": 437688, 
    "pop100": 5474053, 
    "name": "Baluran", 
    "country": "Indonesia", 
    "pop010": 59107, 
    "pop005": 1313, 
    "longitude": 114.37, 
    "region2": "Indonesia", 
    "latitude": -7.85, 
    "type": "Stratovolcano"
  }, 
  {
    "elevation": 862, 
    "lastErupYear": "Unknown", 
    "evidence": "Unrest / Holocene", 
    "subregion": "Mindanao", 
    "pop030": 10763, 
    "pop100": 1286239, 
    "name": "Balut", 
    "country": "Philippines", 
    "pop010": 1901, 
    "pop005": 1472, 
    "longitude": 125.375, 
    "region2": "Philippines and SE Asia", 
    "latitude": 5.4, 
    "type": "Stratovolcano"
  }, 
  {
    "elevation": 685, 
    "lastErupYear": "1960", 
    "evidence": "Eruption Observed", 
    "subregion": "Northeast of New Guinea", 
    "pop030": 462, 
    "pop100": 103203, 
    "name": "Bam", 
    "country": "Papua New Guinea", 
    "pop010": 192, 
    "pop005": 192, 
    "longitude": 144.818, 
    "region2": "Melanesia and Australia", 
    "latitude": -3.613, 
    "type": "Stratovolcano"
  }, 
  {
    "elevation": 2248, 
    "lastErupYear": "1886", 
    "evidence": "Eruption Observed", 
    "subregion": "New Britain", 
    "pop030": 19320, 
    "pop100": 71997, 
    "name": "Bamus", 
    "country": "Papua New Guinea", 
    "pop010": 630, 
    "pop005": 50, 
    "longitude": 151.23, 
    "region2": "Melanesia and Australia", 
    "latitude": -5.2, 
    "type": "Stratovolcano"
  }, 
  {
    "elevation": 2158, 
    "lastErupYear": "Unknown", 
    "evidence": "Evidence Credible", 
    "subregion": "Luzon", 
    "pop030": 1698285, 
    "pop100": 23837289, 
    "name": "Banahaw", 
    "country": "Philippines", 
    "pop010": 93134, 
    "pop005": 754, 
    "longitude": 121.48, 
    "region2": "Philippines and SE Asia", 
    "latitude": 14.07, 
    "type": "Complex"
  }, 
  {
    "elevation": 596, 
    "lastErupYear": "1988", 
    "evidence": "Eruption Observed", 
    "subregion": "Banda Sea", 
    "pop030": 5810, 
    "pop100": 5810, 
    "name": "Banda Api", 
    "country": "Indonesia", 
    "pop010": 5682, 
    "pop005": 5682, 
    "longitude": 129.881, 
    "region2": "Indonesia", 
    "latitude": -4.523, 
    "type": "Caldera"
  }, 
  {
    "elevation": 1816, 
    "lastErupYear": "1888", 
    "evidence": "Eruption Observed", 
    "subregion": "Honshu", 
    "pop030": 327454, 
    "pop100": 4709782, 
    "name": "Bandaisan", 
    "country": "Japan", 
    "pop010": 17608, 
    "pop005": 5923, 
    "longitude": 140.072, 
    "region2": "Japan, Taiwan, Marianas", 
    "latitude": 37.601, 
    "type": "Stratovolcano"
  }, 
  {
    "elevation": -5, 
    "lastErupYear": "1919", 
    "evidence": "Eruption Observed", 
    "subregion": "Sangihe Islands", 
    "pop030": 4586, 
    "pop100": 69756, 
    "name": "Banua Wuhu", 
    "country": "Indonesia", 
    "pop010": 480, 
    "pop005": 359, 
    "longitude": 125.491, 
    "region2": "Indonesia", 
    "latitude": 3.138, 
    "type": "Submarine"
  }, 
  {
    "elevation": 332, 
    "lastErupYear": "1953", 
    "evidence": "Eruption Observed", 
    "subregion": "Mexico", 
    "pop030": 0, 
    "pop100": 0, 
    "name": "Barcena", 
    "country": "Mexico", 
    "pop010": 0, 
    "pop005": 0, 
    "longitude": -110.82, 
    "region2": "M\u00e9xico and Central America", 
    "latitude": 19.3, 
    "type": "Pyroclastic cone(s)"
  }, 
  {
    "elevation": 2000, 
    "lastErupYear": "2015", 
    "evidence": "Eruption Observed", 
    "subregion": "Iceland (northeastern)", 
    "pop030": 0, 
    "pop100": 1348, 
    "name": "Bardarbunga", 
    "country": "Iceland", 
    "pop010": 0, 
    "pop005": 0, 
    "longitude": -17.516, 
    "region2": "Iceland and Arctic Ocean", 
    "latitude": 64.633, 
    "type": "Stratovolcano"
  }, 
  {
    "elevation": 874, 
    "lastErupYear": "-3550", 
    "evidence": "Eruption Dated", 
    "subregion": "Kamchatka Peninsula", 
    "pop030": 13963, 
    "pop100": 252873, 
    "name": "Barkhatnaya Sopka", 
    "country": "Russia", 
    "pop010": 208, 
    "pop005": 0, 
    "longitude": 158.24, 
    "region2": "Kamchatka and Mainland Asia", 
    "latitude": 52.802, 
    "type": "Lava dome(s)"
  }, 
  {
    "elevation": 354, 
    "lastErupYear": "2017", 
    "evidence": "Eruption Observed", 
    "subregion": "Andaman Islands", 
    "pop030": 645, 
    "pop100": 5035, 
    "name": "Barren Island", 
    "country": "India", 
    "pop010": 645, 
    "pop005": 645, 
    "longitude": 93.858, 
    "region2": "Indonesia", 
    "latitude": 12.278, 
    "type": "Stratovolcano"
  }, 
  {
    "elevation": 1032, 
    "lastErupYear": "1921", 
    "evidence": "Eruption Observed", 
    "subregion": "Africa (eastern)", 
    "pop030": 4180, 
    "pop100": 109675, 
    "name": "Barrier", 
    "country": "Kenya", 
    "pop010": 112, 
    "pop005": 17, 
    "longitude": 36.57, 
    "region2": "Africa and Red Sea", 
    "latitude": 2.32, 
    "type": "Shield"
  }, 
  {
    "elevation": 3474, 
    "lastErupYear": "1550", 
    "evidence": "Eruption Observed", 
    "subregion": "Panama", 
    "pop030": 79933, 
    "pop100": 756597, 
    "name": "Baru", 
    "country": "Panama", 
    "pop010": 6983, 
    "pop005": 118, 
    "longitude": -82.543, 
    "region2": "M\u00e9xico and Central America", 
    "latitude": 8.808, 
    "type": "Stratovolcano"
  }, 
  {
    "elevation": 2906, 
    "lastErupYear": "-6050", 
    "evidence": "Eruption Dated", 
    "subregion": "Costa Rica", 
    "pop030": 2004665, 
    "pop100": 3399329, 
    "name": "Barva", 
    "country": "Costa Rica", 
    "pop010": 8018, 
    "pop005": 177, 
    "longitude": -84.1, 
    "region2": "M\u00e9xico and Central America", 
    "latitude": 10.135, 
    "type": "Complex"
  }, 
  {
    "elevation": 392, 
    "lastErupYear": "Unknown", 
    "evidence": "Evidence Uncertain", 
    "subregion": "Southeast Asia", 
    "pop030": 991688, 
    "pop100": 12300349, 
    "name": "Bas Dong Nai", 
    "country": "Vietnam", 
    "pop010": 991688, 
    "pop005": 991688, 
    "longitude": 107.2, 
    "region2": "Philippines and SE Asia", 
    "latitude": 10.8, 
    "type": "Volcanic field"
  }, 
  {
    "elevation": 1717, 
    "lastErupYear": "2000", 
    "evidence": "Eruption Observed", 
    "subregion": "Lesser Sunda Islands", 
    "pop030": 937766, 
    "pop100": 4289189, 
    "name": "Batur", 
    "country": "Indonesia", 
    "pop010": 466899, 
    "pop005": 466899, 
    "longitude": 115.375, 
    "region2": "Indonesia", 
    "latitude": -8.242, 
    "type": "Caldera"
  }, 
  {
    "elevation": 5413, 
    "lastErupYear": "Unknown", 
    "evidence": "Evidence Credible", 
    "subregion": "Northern Chile, Bolivia and Argentina", 
    "pop030": 288, 
    "pop100": 7824, 
    "name": "Bayo Gorbea", 
    "country": "Chile-Argentina", 
    "pop010": 26, 
    "pop005": 0, 
    "longitude": -68.588, 
    "region2": "South America", 
    "latitude": -25.414, 
    "type": "Complex"
  }, 
  {
    "elevation": 670, 
    "lastErupYear": "850", 
    "evidence": "Eruption Dated", 
    "subregion": "Africa (northern)", 
    "pop030": 2752, 
    "pop100": 259325, 
    "name": "Bayuda Volcanic Field", 
    "country": "Sudan", 
    "pop010": 1124, 
    "pop005": 1124, 
    "longitude": 32.75, 
    "region2": "Africa and Red Sea", 
    "latitude": 18.33, 
    "type": "Pyroclastic cone(s)"
  }, 
  {
    "elevation": 3490, 
    "lastErupYear": "Unknown", 
    "evidence": "Unrest / Holocene", 
    "subregion": "Middle East (eastern)", 
    "pop030": 7370, 
    "pop100": 102151, 
    "name": "Bazman", 
    "country": "Iran", 
    "pop010": 64, 
    "pop005": 8, 
    "longitude": 60.0, 
    "region2": "Middle East and Indian Ocean", 
    "latitude": 28.07, 
    "type": "Stratovolcano"
  }, 
  {
    "elevation": 500, 
    "lastErupYear": "Unknown", 
    "evidence": "Evidence Uncertain", 
    "subregion": "Alaska (eastern)", 
    "pop030": 6, 
    "pop100": 15569, 
    "name": "Behm Canal-Rudyerd Bay", 
    "country": "United States", 
    "pop010": 0, 
    "pop005": 0, 
    "longitude": -131.05, 
    "region2": "Alaska", 
    "latitude": 55.32, 
    "type": "Pyroclastic cone(s)"
  }, 
  {
    "elevation": 892, 
    "lastErupYear": "Unknown", 
    "evidence": "Evidence Credible", 
    "subregion": "Kamchatka Peninsula", 
    "pop030": 118, 
    "pop100": 3968, 
    "name": "Belenkaya", 
    "country": "Russia", 
    "pop010": 8, 
    "pop005": 0, 
    "longitude": 157.27, 
    "region2": "Kamchatka and Mainland Asia", 
    "latitude": 51.75, 
    "type": "Stratovolcano"
  }, 
  {
    "elevation": 2095, 
    "lastErupYear": "480", 
    "evidence": "Eruption Dated", 
    "subregion": "USA (Oregon)", 
    "pop030": 6518, 
    "pop100": 362091, 
    "name": "Belknap", 
    "country": "United States", 
    "pop010": 0, 
    "pop005": 0, 
    "longitude": -121.841, 
    "region2": "Canada and Western USA", 
    "latitude": 44.285, 
    "type": "Shield(s)"
  }, 
  {
    "elevation": 2080, 
    "lastErupYear": "Unknown", 
    "evidence": "Evidence Uncertain", 
    "subregion": "Kamchatka Peninsula", 
    "pop030": 20, 
    "pop100": 1320, 
    "name": "Bely", 
    "country": "Russia", 
    "pop010": 0, 
    "pop005": 0, 
    "longitude": 160.53, 
    "region2": "Kamchatka and Mainland Asia", 
    "latitude": 57.88, 
    "type": "Shield(s)"
  }, 
  {
    "elevation": 3478, 
    "lastErupYear": "-8350", 
    "evidence": "Eruption Dated", 
    "subregion": "Antarctica and South Sandwich Islands", 
    "pop030": 0, 
    "pop100": 0, 
    "name": "Berlin", 
    "country": "Antarctica", 
    "pop010": 0, 
    "pop005": 0, 
    "longitude": -136.0, 
    "region2": "Antarctica", 
    "latitude": -76.05, 
    "type": "Shield(s)"
  }, 
  {
    "elevation": 1100, 
    "lastErupYear": "Unknown", 
    "evidence": "Evidence Credible", 
    "subregion": "Africa (northeastern) and Red Sea", 
    "pop030": 196084, 
    "pop100": 3809644, 
    "name": "Beru", 
    "country": "Ethiopia", 
    "pop010": 20176, 
    "pop005": 3850, 
    "longitude": 39.75, 
    "region2": "Africa and Red Sea", 
    "latitude": 8.95, 
    "type": "Volcanic field"
  }, 
  {
    "elevation": 1221, 
    "lastErupYear": "Unknown", 
    "evidence": "Evidence Credible", 
    "subregion": "Kuril Islands", 
    "pop030": 240, 
    "pop100": 9155, 
    "name": "Berutarubesan [Berutarube]", 
    "country": "Japan - administered by Russia", 
    "pop010": 113, 
    "pop005": 0, 
    "longitude": 146.932, 
    "region2": "Kuril Islands", 
    "latitude": 44.462, 
    "type": "Stratovolcano"
  }, 
  {
    "elevation": 1899, 
    "lastErupYear": "1940", 
    "evidence": "Eruption Observed", 
    "subregion": "Sumatra", 
    "pop030": 42623, 
    "pop100": 1263142, 
    "name": "Besar", 
    "country": "Indonesia", 
    "pop010": 2467, 
    "pop005": 214, 
    "longitude": 103.67, 
    "region2": "Indonesia", 
    "latitude": -4.43, 
    "type": "Stratovolcano?"
  }, 
  {
    "elevation": 2882, 
    "lastErupYear": "2017", 
    "evidence": "Eruption Observed", 
    "subregion": "Kamchatka Peninsula", 
    "pop030": 47, 
    "pop100": 11728, 
    "name": "Bezymianny", 
    "country": "Russia", 
    "pop010": 0, 
    "pop005": 0, 
    "longitude": 160.595, 
    "region2": "Kamchatka and Mainland Asia", 
    "latitude": 55.972, 
    "type": "Stratovolcano"
  }, 
  {
    "elevation": 932, 
    "lastErupYear": "Unknown", 
    "evidence": "Evidence Credible", 
    "subregion": "Halmahera", 
    "pop030": 15604, 
    "pop100": 83771, 
    "name": "Bibinoi", 
    "country": "Indonesia", 
    "pop010": 4276, 
    "pop005": 53, 
    "longitude": 127.725, 
    "region2": "Indonesia", 
    "latitude": -0.761, 
    "type": "Stratovolcano(es)"
  }, 
  {
    "elevation": 1700, 
    "lastErupYear": "Unknown", 
    "evidence": "Unrest / Holocene", 
    "subregion": "Africa (northeastern) and Red Sea", 
    "pop030": 1222547, 
    "pop100": 9860754, 
    "name": "Bilate River Field", 
    "country": "Ethiopia", 
    "pop010": 359001, 
    "pop005": 359001, 
    "longitude": 38.1, 
    "region2": "Africa and Red Sea", 
    "latitude": 7.07, 
    "type": "Maar(s)"
  }, 
  {
    "elevation": 1301, 
    "lastErupYear": "1939", 
    "evidence": "Eruption Observed", 
    "subregion": "Central Philippines", 
    "pop030": 254519, 
    "pop100": 3177850, 
    "name": "Biliran", 
    "country": "Philippines", 
    "pop010": 78799, 
    "pop005": 4612, 
    "longitude": 124.535, 
    "region2": "Philippines and SE Asia", 
    "latitude": 11.523, 
    "type": "Compound"
  }, 
  {
    "elevation": 1544, 
    "lastErupYear": "1580", 
    "evidence": "Eruption Dated", 
    "subregion": "Bougainville and Solomon Islands", 
    "pop030": 9620, 
    "pop100": 119191, 
    "name": "Billy Mitchell", 
    "country": "Papua New Guinea", 
    "pop010": 449, 
    "pop005": 113, 
    "longitude": 155.225, 
    "region2": "Melanesia and Australia", 
    "latitude": -6.092, 
    "type": "Pyroclastic shield"
  }, 
  {
    "elevation": 464, 
    "lastErupYear": "Unknown", 
    "evidence": "Evidence Uncertain", 
    "subregion": "Middle East (southern)", 
    "pop030": 2117, 
    "pop100": 115648, 
    "name": "Bir Borhut", 
    "country": "Yemen", 
    "pop010": 517, 
    "pop005": 517, 
    "longitude": 50.935, 
    "region2": "Middle East and Indian Ocean", 
    "latitude": 15.515, 
    "type": "Volcanic field"
  }, 
  {
    "elevation": 587, 
    "lastErupYear": "Unknown", 
    "evidence": "Evidence Credible", 
    "subregion": "Middle East (southern)", 
    "pop030": 37855, 
    "pop100": 596401, 
    "name": "Birk", 
    "country": "Saudi Arabia", 
    "pop010": 37855, 
    "pop005": 37855, 
    "longitude": 41.63, 
    "region2": "Middle East and Indian Ocean", 
    "latitude": 18.37, 
    "type": "Volcanic field"
  }, 
  {
    "elevation": 1850, 
    "lastErupYear": "Unknown", 
    "evidence": "Evidence Credible", 
    "subregion": "Africa (northeastern) and Red Sea", 
    "pop030": 662037, 
    "pop100": 7986826, 
    "name": "Bishoftu Volcanic Field", 
    "country": "Ethiopia", 
    "pop010": 310101, 
    "pop005": 310101, 
    "longitude": 38.98, 
    "region2": "Africa and Red Sea", 
    "latitude": 8.78, 
    "type": "Fissure vent(s)"
  }, 
  {
    "elevation": 1478, 
    "lastErupYear": "-8400", 
    "evidence": "Eruption Dated", 
    "subregion": "USA (Idaho)", 
    "pop030": 4440, 
    "pop100": 171376, 
    "name": "Black Butte Crater Lava Field", 
    "country": "United States", 
    "pop010": 158, 
    "pop005": 119, 
    "longitude": -114.352, 
    "region2": "Canada and Western USA", 
    "latitude": 43.183, 
    "type": "Shield"
  }, 
  {
    "elevation": 1032, 
    "lastErupYear": "-1900", 
    "evidence": "Eruption Dated", 
    "subregion": "Alaska Peninsula", 
    "pop030": 0, 
    "pop100": 478, 
    "name": "Black Peak", 
    "country": "United States", 
    "pop010": 0, 
    "pop005": 0, 
    "longitude": -158.785, 
    "region2": "Alaska", 
    "latitude": 56.552, 
    "type": "Stratovolcano"
  }, 
  {
    "elevation": 1800, 
    "lastErupYear": "1290", 
    "evidence": "Eruption Dated", 
    "subregion": "USA (Utah)", 
    "pop030": 3679, 
    "pop100": 54291, 
    "name": "Black Rock Desert", 
    "country": "United States", 
    "pop010": 3292, 
    "pop005": 3292, 
    "longitude": -112.5, 
    "region2": "Canada and Western USA", 
    "latitude": 38.97, 
    "type": "Volcanic field"
  }, 
  {
    "elevation": 1700, 
    "lastErupYear": "Unknown", 
    "evidence": "Evidence Credible", 
    "subregion": "Central Chile and Argentina", 
    "pop030": 0, 
    "pop100": 0, 
    "name": "Blanca", 
    "country": "Argentina", 
    "pop010": 0, 
    "pop005": 0, 
    "longitude": -70.37, 
    "region2": "South America", 
    "latitude": -39.02, 
    "type": "Volcanic field"
  }, 
  {
    "elevation": 2268, 
    "lastErupYear": "Unknown", 
    "evidence": "Evidence Credible", 
    "subregion": "Central Chile and Argentina", 
    "pop030": 1980, 
    "pop100": 355814, 
    "name": "Blancas", 
    "country": "Chile", 
    "pop010": 398, 
    "pop005": 127, 
    "longitude": -71.009, 
    "region2": "South America", 
    "latitude": -36.286, 
    "type": "Stratovolcano"
  }, 
  {
    "elevation": 4670, 
    "lastErupYear": "-2300", 
    "evidence": "Eruption Dated", 
    "subregion": "Northern Chile, Bolivia and Argentina", 
    "pop030": 65, 
    "pop100": 14279, 
    "name": "Blanco", 
    "country": "Argentina", 
    "pop010": 39, 
    "pop005": 39, 
    "longitude": -67.765, 
    "region2": "South America", 
    "latitude": -26.789, 
    "type": "Caldera"
  }, 
  {
    "elevation": 1244, 
    "lastErupYear": "Unknown", 
    "evidence": "Evidence Uncertain", 
    "subregion": "Kamchatka Peninsula", 
    "pop030": 159, 
    "pop100": 9394, 
    "name": "Bliznets", 
    "country": "Russia", 
    "pop010": 0, 
    "pop005": 0, 
    "longitude": 159.78, 
    "region2": "Kamchatka and Mainland Asia", 
    "latitude": 56.97, 
    "type": "Stratovolcano"
  }, 
  {
    "elevation": 265, 
    "lastErupYear": "-1060", 
    "evidence": "Eruption Dated", 
    "subregion": "Kamchatka Peninsula", 
    "pop030": 155, 
    "pop100": 3822, 
    "name": "Bliznetsy", 
    "country": "Russia", 
    "pop010": 4, 
    "pop005": 0, 
    "longitude": 161.37, 
    "region2": "Kamchatka and Mainland Asia", 
    "latitude": 57.35, 
    "type": "Lava cone"
  }, 
  {
    "elevation": 1230, 
    "lastErupYear": "680", 
    "evidence": "Eruption Dated", 
    "subregion": "USA (Oregon)", 
    "pop030": 6914, 
    "pop100": 286219, 
    "name": "Blue Lake Crater", 
    "country": "United States", 
    "pop010": 308, 
    "pop005": 19, 
    "longitude": -121.774, 
    "region2": "Canada and Western USA", 
    "latitude": 44.411, 
    "type": "Maar"
  }, 
  {
    "elevation": 402, 
    "lastErupYear": "Unknown", 
    "evidence": "Evidence Credible", 
    "subregion": "Northeast of New Guinea", 
    "pop030": 462, 
    "pop100": 93315, 
    "name": "Blup Blup", 
    "country": "Papua New Guinea", 
    "pop010": 270, 
    "pop005": 270, 
    "longitude": 144.605, 
    "region2": "Melanesia and Australia", 
    "latitude": -3.507, 
    "type": "Stratovolcano"
  }, 
  {
    "elevation": 738, 
    "lastErupYear": "Unknown", 
    "evidence": "Evidence Uncertain", 
    "subregion": "Aleutian Islands", 
    "pop030": 0, 
    "pop100": 0, 
    "name": "Bobrof", 
    "country": "United States", 
    "pop010": 0, 
    "pop005": 0, 
    "longitude": -177.438, 
    "region2": "Alaska", 
    "latitude": 51.91, 
    "type": "Stratovolcano"
  }, 
  {
    "elevation": 150, 
    "lastErupYear": "2017", 
    "evidence": "Eruption Observed", 
    "subregion": "Aleutian Islands", 
    "pop030": 0, 
    "pop100": 4216, 
    "name": "Bogoslof", 
    "country": "United States", 
    "pop010": 0, 
    "pop005": 0, 
    "longitude": -168.03, 
    "region2": "Alaska", 
    "latitude": 53.93, 
    "type": "Submarine"
  }, 
  {
    "elevation": 240, 
    "lastErupYear": "Unknown", 
    "evidence": "Evidence Uncertain", 
    "subregion": "Northeast of New Guinea", 
    "pop030": 18874, 
    "pop100": 177478, 
    "name": "Boisa", 
    "country": "Papua New Guinea", 
    "pop010": 1343, 
    "pop005": 139, 
    "longitude": 144.963, 
    "region2": "Melanesia and Australia", 
    "latitude": -3.994, 
    "type": "Stratovolcano"
  }, 
  {
    "elevation": 1116, 
    "lastErupYear": "Unknown", 
    "evidence": "Evidence Credible", 
    "subregion": "New Britain", 
    "pop030": 8601, 
    "pop100": 116418, 
    "name": "Bola", 
    "country": "Papua New Guinea", 
    "pop010": 387, 
    "pop005": 73, 
    "longitude": 150.038, 
    "region2": "Melanesia and Australia", 
    "latitude": -5.141, 
    "type": "Stratovolcano"
  }, 
  {
    "elevation": 1200, 
    "lastErupYear": "Unknown", 
    "evidence": "Evidence Credible", 
    "subregion": "Kamchatka Peninsula", 
    "pop030": 1061, 
    "pop100": 271762, 
    "name": "Bolshe-Bannaya", 
    "country": "Russia", 
    "pop010": 27, 
    "pop005": 0, 
    "longitude": 157.78, 
    "region2": "Kamchatka and Mainland Asia", 
    "latitude": 52.9, 
    "type": "Lava dome(s)"
  }, 
  {
    "elevation": 1906, 
    "lastErupYear": "Unknown", 
    "evidence": "Evidence Uncertain", 
    "subregion": "Kamchatka Peninsula", 
    "pop030": 26, 
    "pop100": 2653, 
    "name": "Bolshoi Payalpan", 
    "country": "Russia", 
    "pop010": 0, 
    "pop005": 0, 
    "longitude": 157.78, 
    "region2": "Kamchatka and Mainland Asia", 
    "latitude": 55.88, 
    "type": "Shield(s)"
  }, 
  {
    "elevation": 1720, 
    "lastErupYear": "-4450", 
    "evidence": "Eruption Dated", 
    "subregion": "Kamchatka Peninsula", 
    "pop030": 554, 
    "pop100": 7373, 
    "name": "Bolshoi Semiachik", 
    "country": "Russia", 
    "pop010": 0, 
    "pop005": 0, 
    "longitude": 160.02, 
    "region2": "Kamchatka and Mainland Asia", 
    "latitude": 54.32, 
    "type": "Stratovolcano(es)"
  }, 
  {
    "elevation": 1401, 
    "lastErupYear": "-5310", 
    "evidence": "Eruption Dated", 
    "subregion": "Kamchatka Peninsula", 
    "pop030": 158, 
    "pop100": 2779, 
    "name": "Bolshoi-Kekuknaysky", 
    "country": "Russia", 
    "pop010": 0, 
    "pop005": 0, 
    "longitude": 157.917, 
    "region2": "Kamchatka and Mainland Asia", 
    "latitude": 56.483, 
    "type": "Shield(s)"
  }, 
  {
    "elevation": 531, 
    "lastErupYear": "Unknown", 
    "evidence": "Evidence Uncertain", 
    "subregion": "Borneo", 
    "pop030": 323619, 
    "pop100": 680856, 
    "name": "Bombalai", 
    "country": "Malaysia", 
    "pop010": 4272, 
    "pop005": 800, 
    "longitude": 117.88, 
    "region2": "Indonesia", 
    "latitude": 4.4, 
    "type": "Pyroclastic cone"
  }, 
  {
    "elevation": -650, 
    "lastErupYear": "1995", 
    "evidence": "Eruption Dated", 
    "subregion": "Indian Ocean (southern)", 
    "pop030": 0, 
    "pop100": 0, 
    "name": "Boomerang Seamount", 
    "country": "France", 
    "pop010": 0, 
    "pop005": 0, 
    "longitude": 77.825, 
    "region2": "Middle East and Indian Ocean", 
    "latitude": -37.721, 
    "type": "Submarine"
  }, 
  {
    "elevation": 668, 
    "lastErupYear": "Unknown", 
    "evidence": "Evidence Credible", 
    "subregion": "Africa (northeastern) and Red Sea", 
    "pop030": 11328, 
    "pop100": 339803, 
    "name": "Bora Ale", 
    "country": "Ethiopia", 
    "pop010": 0, 
    "pop005": 0, 
    "longitude": 40.6, 
    "region2": "Africa and Red Sea", 
    "latitude": 13.725, 
    "type": "Stratovolcano"
  }, 
  {
    "elevation": 2267, 
    "lastErupYear": "Unknown", 
    "evidence": "Evidence Credible", 
    "subregion": "Africa (northeastern) and Red Sea", 
    "pop030": 433373, 
    "pop100": 8356559, 
    "name": "Bora-Bericcio", 
    "country": "Ethiopia", 
    "pop010": 44666, 
    "pop005": 5822, 
    "longitude": 39.05, 
    "region2": "Africa and Red Sea", 
    "latitude": 8.221, 
    "type": "Pyroclastic cone(s)"
  }, 
  {
    "elevation": 875, 
    "lastErupYear": "Unknown", 
    "evidence": "Evidence Credible", 
    "subregion": "Africa (northeastern) and Red Sea", 
    "pop030": 103744, 
    "pop100": 321195, 
    "name": "Borawli", 
    "country": "Ethiopia", 
    "pop010": 30581, 
    "pop005": 920, 
    "longitude": 41.45, 
    "region2": "Africa and Red Sea", 
    "latitude": 11.63, 
    "type": "Lava dome(s)"
  }, 
  {
    "elevation": 784, 
    "lastErupYear": "Unknown", 
    "evidence": "Evidence Credible", 
    "subregion": "Africa (northeastern) and Red Sea", 
    "pop030": 3699, 
    "pop100": 111101, 
    "name": "Borawli", 
    "country": "Ethiopia", 
    "pop010": 100, 
    "pop005": 38, 
    "longitude": 40.987, 
    "region2": "Africa and Red Sea", 
    "latitude": 13.304, 
    "type": "Stratovolcano"
  }, 
  {
    "elevation": 2447, 
    "lastErupYear": "Unknown", 
    "evidence": "Evidence Credible", 
    "subregion": "Africa (northeastern) and Red Sea", 
    "pop030": 586318, 
    "pop100": 7130451, 
    "name": "Boset-Bericha", 
    "country": "Ethiopia", 
    "pop010": 19603, 
    "pop005": 3267, 
    "longitude": 39.475, 
    "region2": "Africa and Red Sea", 
    "latitude": 8.558, 
    "type": "Stratovolcano(es)"
  }, 
  {
    "elevation": 741, 
    "lastErupYear": "-50", 
    "evidence": "Eruption Dated", 
    "subregion": "Atlantic Ocean (southern)", 
    "pop030": 0, 
    "pop100": 0, 
    "name": "Bouvet", 
    "country": "Norway", 
    "pop010": 0, 
    "pop005": 0, 
    "longitude": 3.351, 
    "region2": "Atlantic Ocean", 
    "latitude": -54.408, 
    "type": "Shield"
  }, 
  {
    "elevation": 900, 
    "lastErupYear": "Unknown", 
    "evidence": "Evidence Credible", 
    "subregion": "Cape Verde Islands", 
    "pop030": 25852, 
    "pop100": 43281, 
    "name": "Brava", 
    "country": "Cape Verde", 
    "pop010": 6644, 
    "pop005": 5631, 
    "longitude": -24.72, 
    "region2": "Atlantic Ocean", 
    "latitude": 14.85, 
    "type": "Stratovolcano"
  }, 
  {
    "elevation": 3985, 
    "lastErupYear": "1720", 
    "evidence": "Eruption Dated", 
    "subregion": "Colombia", 
    "pop030": 538690, 
    "pop100": 3929468, 
    "name": "Bravo", 
    "country": "Colombia", 
    "pop010": 4916, 
    "pop005": 1679, 
    "longitude": -75.293, 
    "region2": "South America", 
    "latitude": 5.091, 
    "type": "Stratovolcano"
  }, 
  {
    "elevation": 610, 
    "lastErupYear": "1341", 
    "evidence": "Eruption Observed", 
    "subregion": "Iceland (southwestern)", 
    "pop030": 163469, 
    "pop100": 203012, 
    "name": "Brennisteinsfjoll", 
    "country": "Iceland", 
    "pop010": 33526, 
    "pop005": 33526, 
    "longitude": -21.783, 
    "region2": "Iceland and Arctic Ocean", 
    "latitude": 63.933, 
    "type": "Crater rows"
  }, 
  {
    "elevation": 2500, 
    "lastErupYear": "Unknown", 
    "evidence": "Evidence Credible", 
    "subregion": "Canada", 
    "pop030": 219, 
    "pop100": 15871, 
    "name": "Bridge River Cones", 
    "country": "Canada", 
    "pop010": 55, 
    "pop005": 55, 
    "longitude": -123.4, 
    "region2": "Canada and Western USA", 
    "latitude": 50.8, 
    "type": "Volcanic field"
  }, 
  {
    "elevation": 240, 
    "lastErupYear": "Unknown", 
    "evidence": "Evidence Uncertain", 
    "subregion": "Antarctica and South Sandwich Islands", 
    "pop030": 0, 
    "pop100": 0, 
    "name": "Bridgeman Island", 
    "country": "Antarctica", 
    "pop010": 0, 
    "pop005": 0, 
    "longitude": -56.717, 
    "region2": "Antarctica", 
    "latitude": -62.061, 
    "type": "Stratovolcano"
  }, 
  {
    "elevation": 1100, 
    "lastErupYear": "2016", 
    "evidence": "Eruption Observed", 
    "subregion": "Antarctica and South Sandwich Islands", 
    "pop030": 0, 
    "pop100": 0, 
    "name": "Bristol Island", 
    "country": "United Kingdom", 
    "pop010": 0, 
    "pop005": 0, 
    "longitude": -26.533, 
    "region2": "Antarctica", 
    "latitude": -59.017, 
    "type": "Stratovolcano"
  }, 
  {
    "elevation": -1350, 
    "lastErupYear": "Unknown", 
    "evidence": "Unrest / Holocene", 
    "subregion": "New Zealand", 
    "pop030": 0, 
    "pop100": 0, 
    "name": "Brothers", 
    "country": "New Zealand", 
    "pop010": 0, 
    "pop005": 0, 
    "longitude": 179.075, 
    "region2": "New Zealand to Fiji", 
    "latitude": -34.875, 
    "type": "Submarine"
  }, 
  {
    "elevation": 1239, 
    "lastErupYear": "1899", 
    "evidence": "Eruption Observed", 
    "subregion": "Antarctica and South Sandwich Islands", 
    "pop030": 0, 
    "pop100": 0, 
    "name": "Buckle Island", 
    "country": "Antarctica", 
    "pop010": 0, 
    "pop005": 0, 
    "longitude": 163.25, 
    "region2": "Antarctica", 
    "latitude": -66.78, 
    "type": "Stratovolcano"
  }, 
  {
    "elevation": 2440, 
    "lastErupYear": "Unknown", 
    "evidence": "Evidence Uncertain", 
    "subregion": "Africa (central)", 
    "pop030": 830916, 
    "pop100": 10342253, 
    "name": "Bufumbira", 
    "country": "Uganda", 
    "pop010": 436134, 
    "pop005": 436134, 
    "longitude": 29.72, 
    "region2": "Africa and Red Sea", 
    "latitude": -1.23, 
    "type": "Pyroclastic cone(s)"
  }, 
  {
    "elevation": 656, 
    "lastErupYear": "Unknown", 
    "evidence": "Evidence Uncertain", 
    "subregion": "Aleutian Islands", 
    "pop030": 0, 
    "pop100": 0, 
    "name": "Buldir", 
    "country": "United States", 
    "pop010": 0, 
    "pop005": 0, 
    "longitude": 175.911, 
    "region2": "Alaska", 
    "latitude": 52.35, 
    "type": "Stratovolcano"
  }, 
  {
    "elevation": 1565, 
    "lastErupYear": "2017", 
    "evidence": "Eruption Observed", 
    "subregion": "Luzon", 
    "pop030": 518705, 
    "pop100": 3360418, 
    "name": "Bulusan", 
    "country": "Philippines", 
    "pop010": 74286, 
    "pop005": 2789, 
    "longitude": 124.05, 
    "region2": "Philippines and SE Asia", 
    "latitude": 12.77, 
    "type": "Stratovolcano(es)"
  }, 
  {
    "elevation": 1554, 
    "lastErupYear": "Unknown", 
    "evidence": "Evidence Credible", 
    "subregion": "Africa (central)", 
    "pop030": 338735, 
    "pop100": 5955535, 
    "name": "Bunyaruguru", 
    "country": "Uganda", 
    "pop010": 177517, 
    "pop005": 177517, 
    "longitude": 30.08, 
    "region2": "Africa and Red Sea", 
    "latitude": -0.2, 
    "type": "Maar(s)"
  }, 
  {
    "elevation": 1758, 
    "lastErupYear": "1910", 
    "evidence": "Eruption Observed", 
    "subregion": "Southern Chile and Argentina", 
    "pop030": 0, 
    "pop100": 3309, 
    "name": "Burney", 
    "country": "Chile", 
    "pop010": 0, 
    "pop005": 0, 
    "longitude": -73.4, 
    "region2": "South America", 
    "latitude": -52.33, 
    "type": "Stratovolcano"
  }, 
  {
    "elevation": 1301, 
    "lastErupYear": "Unknown", 
    "evidence": "Evidence Uncertain", 
    "subregion": "Mongolia", 
    "pop030": 5626, 
    "pop100": 46730, 
    "name": "Bus-Obo", 
    "country": "Mongolia", 
    "pop010": 1349, 
    "pop005": 640, 
    "longitude": 109.355, 
    "region2": "Kamchatka and Mainland Asia", 
    "latitude": 46.995, 
    "type": "Pyroclastic cone"
  }, 
  {
    "elevation": 2281, 
    "lastErupYear": "Unknown", 
    "evidence": "Evidence Credible", 
    "subregion": "Africa (northeastern) and Red Sea", 
    "pop030": 889323, 
    "pop100": 7096283, 
    "name": "Butajiri-Silti Field", 
    "country": "Ethiopia", 
    "pop010": 431631, 
    "pop005": 431631, 
    "longitude": 38.35, 
    "region2": "Africa and Red Sea", 
    "latitude": 8.05, 
    "type": "Fissure vent(s)"
  }, 
  {
    "elevation": 2244, 
    "lastErupYear": "Unknown", 
    "evidence": "Evidence Credible", 
    "subregion": "Lesser Sunda Islands", 
    "pop030": 935879, 
    "pop100": 4355947, 
    "name": "Buyan-Bratan", 
    "country": "Indonesia", 
    "pop010": 333333, 
    "pop005": 333333, 
    "longitude": 115.133, 
    "region2": "Indonesia", 
    "latitude": -8.283, 
    "type": "Caldera"
  }, 
  {
    "elevation": 830, 
    "lastErupYear": "-1050", 
    "evidence": "Eruption Dated", 
    "subregion": "Alaska (eastern)", 
    "pop030": 12, 
    "pop100": 79489, 
    "name": "Buzzard Creek", 
    "country": "United States", 
    "pop010": 0, 
    "pop005": 0, 
    "longitude": -148.433, 
    "region2": "Alaska", 
    "latitude": 64.062, 
    "type": "Tuff ring(s)"
  }, 
  {
    "elevation": 912, 
    "lastErupYear": "1820", 
    "evidence": "Eruption Dated", 
    "subregion": "Central Philippines", 
    "pop030": 277950, 
    "pop100": 2091362, 
    "name": "Cabal\u00edan", 
    "country": "Philippines", 
    "pop010": 88767, 
    "pop005": 26511, 
    "longitude": 125.218, 
    "region2": "Philippines and SE Asia", 
    "latitude": 10.285, 
    "type": "Stratovolcano"
  }, 
  {
    "elevation": 1652, 
    "lastErupYear": "-5050", 
    "evidence": "Eruption Dated", 
    "subregion": "Central Chile and Argentina", 
    "pop030": 17774, 
    "pop100": 521553, 
    "name": "Caburgua-Huelemolle", 
    "country": "Chile", 
    "pop010": 5951, 
    "pop005": 5951, 
    "longitude": -71.75, 
    "region2": "South America", 
    "latitude": -39.25, 
    "type": "Pyroclastic cone(s)"
  }, 
  {
    "elevation": 1133, 
    "lastErupYear": "1860", 
    "evidence": "Eruption Observed", 
    "subregion": "Luzon", 
    "pop030": 34018, 
    "pop100": 1480952, 
    "name": "Cagua", 
    "country": "Philippines", 
    "pop010": 1137, 
    "pop005": 99, 
    "longitude": 122.123, 
    "region2": "Philippines and SE Asia", 
    "latitude": 18.222, 
    "type": "Stratovolcano"
  }, 
  {
    "elevation": 4458, 
    "lastErupYear": "Unknown", 
    "evidence": "Evidence Uncertain", 
    "subregion": "Northern Chile, Bolivia and Argentina", 
    "pop030": 148, 
    "pop100": 6193, 
    "name": "Caichinque", 
    "country": "Chile", 
    "pop010": 8, 
    "pop005": 0, 
    "longitude": -67.74, 
    "region2": "South America", 
    "latitude": -23.949, 
    "type": "Stratovolcano(es)"
  }, 
  {
    "elevation": 3508, 
    "lastErupYear": "Unknown", 
    "evidence": "Evidence Credible", 
    "subregion": "Central Chile and Argentina", 
    "pop030": 1023, 
    "pop100": 305637, 
    "name": "Calabozos", 
    "country": "Chile", 
    "pop010": 550, 
    "pop005": 550, 
    "longitude": -70.496, 
    "region2": "South America", 
    "latitude": -35.558, 
    "type": "Caldera"
  }, 
  {
    "elevation": 1117, 
    "lastErupYear": "-3600", 
    "evidence": "Eruption Dated", 
    "subregion": "Western Europe", 
    "pop030": 197199, 
    "pop100": 774386, 
    "name": "Calatrava Volcanic Field", 
    "country": "Spain", 
    "pop010": 197199, 
    "pop005": 197199, 
    "longitude": -4.02, 
    "region2": "Mediterranean and Western Asia", 
    "latitude": 38.87, 
    "type": "Pyroclastic cone(s)"
  }, 
  {
    "elevation": 1974, 
    "lastErupYear": "2015", 
    "evidence": "Eruption Observed", 
    "subregion": "Southern Chile and Argentina", 
    "pop030": 32265, 
    "pop100": 575233, 
    "name": "Calbuco", 
    "country": "Chile", 
    "pop010": 871, 
    "pop005": 70, 
    "longitude": -72.618, 
    "region2": "South America", 
    "latitude": -41.33, 
    "type": "Stratovolcano"
  }, 
  {
    "elevation": 3164, 
    "lastErupYear": "1980", 
    "evidence": "Eruption Observed", 
    "subregion": "Central Chile and Argentina", 
    "pop030": 4354, 
    "pop100": 400426, 
    "name": "Callaqui", 
    "country": "Chile", 
    "pop010": 294, 
    "pop005": 56, 
    "longitude": -71.45, 
    "region2": "South America", 
    "latitude": -37.92, 
    "type": "Stratovolcano"
  }, 
  {
    "elevation": 4095, 
    "lastErupYear": "2000", 
    "evidence": "Eruption Observed", 
    "subregion": "Africa (western)", 
    "pop030": 417460, 
    "pop100": 3079036, 
    "name": "Cameroon", 
    "country": "Cameroon", 
    "pop010": 26053, 
    "pop005": 328, 
    "longitude": 9.17, 
    "region2": "Africa and Red Sea", 
    "latitude": 4.203, 
    "type": "Stratovolcano"
  }, 
  {
    "elevation": 1552, 
    "lastErupYear": "1953", 
    "evidence": "Eruption Observed", 
    "subregion": "Mindanao", 
    "pop030": 92178, 
    "pop100": 2871353, 
    "name": "Camiguin", 
    "country": "Philippines", 
    "pop010": 51587, 
    "pop005": 12173, 
    "longitude": 124.673, 
    "region2": "Philippines and SE Asia", 
    "latitude": 9.203, 
    "type": "Stratovolcano(es)"
  }, 
  {
    "elevation": 712, 
    "lastErupYear": "1857", 
    "evidence": "Eruption Observed", 
    "subregion": "North of Luzon", 
    "pop030": 1369, 
    "pop100": 409653, 
    "name": "Camiguin de Babuyanes", 
    "country": "Philippines", 
    "pop010": 1066, 
    "pop005": 876, 
    "longitude": 121.86, 
    "region2": "Philippines and SE Asia", 
    "latitude": 18.83, 
    "type": "Stratovolcano"
  }, 
  {
    "elevation": 458, 
    "lastErupYear": "1538", 
    "evidence": "Eruption Observed", 
    "subregion": "Italy", 
    "pop030": 3006865, 
    "pop100": 6019697, 
    "name": "Campi Flegrei", 
    "country": "Italy", 
    "pop010": 2234109, 
    "pop005": 2234109, 
    "longitude": 14.139, 
    "region2": "Mediterranean and Western Asia", 
    "latitude": 40.827, 
    "type": "Caldera"
  }, 
  {
    "elevation": -8, 
    "lastErupYear": "1867", 
    "evidence": "Eruption Observed", 
    "subregion": "Italy", 
    "pop030": 230578, 
    "pop100": 633350, 
    "name": "Campi Flegrei Mar Sicilia", 
    "country": "Italy", 
    "pop010": 230578, 
    "pop005": 230578, 
    "longitude": 12.7, 
    "region2": "Mediterranean and Western Asia", 
    "latitude": 37.1, 
    "type": "Submarine"
  }, 
  {
    "elevation": 550, 
    "lastErupYear": "1911", 
    "evidence": "Eruption Observed", 
    "subregion": "Antarctica and South Sandwich Islands", 
    "pop030": 0, 
    "pop100": 0, 
    "name": "Candlemas Island", 
    "country": "United Kingdom", 
    "pop010": 0, 
    "pop005": 0, 
    "longitude": -26.67, 
    "region2": "Antarctica", 
    "latitude": -57.08, 
    "type": "Stratovolcano"
  }, 
  {
    "elevation": 1620, 
    "lastErupYear": "1828", 
    "evidence": "Eruption Observed", 
    "subregion": "Aleutian Islands", 
    "pop030": 0, 
    "pop100": 30, 
    "name": "Carlisle", 
    "country": "United States", 
    "pop010": 0, 
    "pop005": 0, 
    "longitude": -170.054, 
    "region2": "Alaska", 
    "latitude": 52.894, 
    "type": "Stratovolcano"
  }, 
  {
    "elevation": 1114, 
    "lastErupYear": "1979", 
    "evidence": "Eruption Observed", 
    "subregion": "Central Chile and Argentina", 
    "pop030": 9001, 
    "pop100": 452820, 
    "name": "Carr\u00e1n-Los Venados", 
    "country": "Chile", 
    "pop010": 4840, 
    "pop005": 4840, 
    "longitude": -72.07, 
    "region2": "South America", 
    "latitude": -40.35, 
    "type": "Pyroclastic cone(s)"
  }, 
  {
    "elevation": 1731, 
    "lastErupYear": "-3250", 
    "evidence": "Eruption Dated", 
    "subregion": "USA (New Mexico)", 
    "pop030": 2596, 
    "pop100": 89711, 
    "name": "Carrizozo", 
    "country": "United States", 
    "pop010": 11, 
    "pop005": 2, 
    "longitude": -105.93, 
    "region2": "Canada and Western USA", 
    "latitude": 33.78, 
    "type": "Pyroclastic cone(s)"
  }, 
  {
    "elevation": 5650, 
    "lastErupYear": "Unknown", 
    "evidence": "Evidence Credible", 
    "subregion": "Peru", 
    "pop030": 15247, 
    "pop100": 419038, 
    "name": "Casiri", 
    "country": "Peru", 
    "pop010": 922, 
    "pop005": 233, 
    "longitude": -69.813, 
    "region2": "South America", 
    "latitude": -17.47, 
    "type": "Stratovolcano(es)"
  }, 
  {
    "elevation": 2090, 
    "lastErupYear": "Unknown", 
    "evidence": "Evidence Uncertain", 
    "subregion": "Southern Chile and Argentina", 
    "pop030": 104, 
    "pop100": 74787, 
    "name": "Cay", 
    "country": "Chile", 
    "pop010": 10, 
    "pop005": 0, 
    "longitude": -72.984, 
    "region2": "South America", 
    "latitude": -45.059, 
    "type": "Stratovolcano"
  }, 
  {
    "elevation": 5790, 
    "lastErupYear": "1786", 
    "evidence": "Eruption Observed", 
    "subregion": "Ecuador", 
    "pop030": 109630, 
    "pop100": 3154986, 
    "name": "Cayambe", 
    "country": "Ecuador", 
    "pop010": 1148, 
    "pop005": 70, 
    "longitude": -77.986, 
    "region2": "South America", 
    "latitude": 0.029, 
    "type": "Compound"
  }, 
  {
    "elevation": 2375, 
    "lastErupYear": "Unknown", 
    "evidence": "Evidence Credible", 
    "subregion": "Canada", 
    "pop030": 0, 
    "pop100": 0, 
    "name": "Cayley Volcanic Field", 
    "country": "Canada", 
    "pop010": 0, 
    "pop005": 0, 
    "longitude": -123.28, 
    "region2": "Canada and Western USA", 
    "latitude": 50.12, 
    "type": "Volcanic field"
  }, 
  {
    "elevation": 506, 
    "lastErupYear": "-190", 
    "evidence": "Eruption Dated", 
    "subregion": "Southern Chile and Argentina", 
    "pop030": 5482, 
    "pop100": 451311, 
    "name": "Cayutue-La Vigueria", 
    "country": "Chile", 
    "pop010": 1737, 
    "pop005": 1737, 
    "longitude": -72.27, 
    "region2": "South America", 
    "latitude": -41.25, 
    "type": "Pyroclastic cone(s)"
  }, 
  {
    "elevation": 2280, 
    "lastErupYear": "1875", 
    "evidence": "Eruption Observed", 
    "subregion": "Mexico", 
    "pop030": 93057, 
    "pop100": 1282014, 
    "name": "Ceboruco", 
    "country": "Mexico", 
    "pop010": 30319, 
    "pop005": 616, 
    "longitude": -104.508, 
    "region2": "M\u00e9xico and Central America", 
    "latitude": 21.125, 
    "type": "Stratovolcano"
  }, 
  {
    "elevation": -20, 
    "lastErupYear": "1923", 
    "evidence": "Eruption Observed", 
    "subregion": "Southeast Asia", 
    "pop030": 0, 
    "pop100": 8069, 
    "name": "Cendres", 
    "country": "Vietnam", 
    "pop010": 0, 
    "pop005": 0, 
    "longitude": 109.014, 
    "region2": "Philippines and SE Asia", 
    "latitude": 10.158, 
    "type": "Submarine"
  }, 
  {
    "elevation": 518, 
    "lastErupYear": "Unknown", 
    "evidence": "Evidence Credible", 
    "subregion": "Africa (eastern)", 
    "pop030": 10253, 
    "pop100": 216485, 
    "name": "Central Island", 
    "country": "Kenya", 
    "pop010": 28, 
    "pop005": 28, 
    "longitude": 36.04, 
    "region2": "Africa and Red Sea", 
    "latitude": 3.496, 
    "type": "Tuff cone(s)"
  }, 
  {
    "elevation": 3078, 
    "lastErupYear": "1951", 
    "evidence": "Eruption Observed", 
    "subregion": "Java", 
    "pop030": 3058015, 
    "pop100": 25718820, 
    "name": "Cereme", 
    "country": "Indonesia", 
    "pop010": 67377, 
    "pop005": 915, 
    "longitude": 108.4, 
    "region2": "Indonesia", 
    "latitude": -6.892, 
    "type": "Stratovolcano"
  }, 
  {
    "elevation": 4643, 
    "lastErupYear": "1773", 
    "evidence": "Eruption Observed", 
    "subregion": "Ecuador", 
    "pop030": 348743, 
    "pop100": 3292546, 
    "name": "Chacana", 
    "country": "Ecuador", 
    "pop010": 81716, 
    "pop005": 81716, 
    "longitude": -78.25, 
    "region2": "South America", 
    "latitude": -0.375, 
    "type": "Caldera"
  }, 
  {
    "elevation": 1822, 
    "lastErupYear": "1981", 
    "evidence": "Eruption Observed", 
    "subregion": "Kuril Islands", 
    "pop030": 896, 
    "pop100": 16275, 
    "name": "Chachadake [Tiatia]", 
    "country": "Japan - administered by Russia", 
    "pop010": 223, 
    "pop005": 3, 
    "longitude": 146.252, 
    "region2": "Kuril Islands", 
    "latitude": 44.353, 
    "type": "Stratovolcano"
  }, 
  {
    "elevation": 6057, 
    "lastErupYear": "Unknown", 
    "evidence": "Evidence Uncertain", 
    "subregion": "Peru", 
    "pop030": 887176, 
    "pop100": 1032411, 
    "name": "Chachani", 
    "country": "Peru", 
    "pop010": 1182, 
    "pop005": 97, 
    "longitude": -71.53, 
    "region2": "South America", 
    "latitude": -16.191, 
    "type": "Stratovolcano"
  }, 
  {
    "elevation": 4106, 
    "lastErupYear": "-3740", 
    "evidence": "Eruption Dated", 
    "subregion": "Ecuador", 
    "pop030": 356162, 
    "pop100": 3253458, 
    "name": "Chachimbiro", 
    "country": "Ecuador", 
    "pop010": 5299, 
    "pop005": 125, 
    "longitude": -78.287, 
    "region2": "South America", 
    "latitude": 0.468, 
    "type": "Stratovolcano"
  }, 
  {
    "elevation": 1142, 
    "lastErupYear": "Unknown", 
    "evidence": "Evidence Credible", 
    "subregion": "Aleutian Islands", 
    "pop030": 0, 
    "pop100": 0, 
    "name": "Chagulak", 
    "country": "United States", 
    "pop010": 0, 
    "pop005": 0, 
    "longitude": -171.13, 
    "region2": "Alaska", 
    "latitude": 52.577, 
    "type": "Stratovolcano"
  }, 
  {
    "elevation": 1464, 
    "lastErupYear": "-4040", 
    "evidence": "Eruption Dated", 
    "subregion": "Western Europe", 
    "pop030": 427221, 
    "pop100": 1577243, 
    "name": "Chaine des Puys", 
    "country": "France", 
    "pop010": 323392, 
    "pop005": 323392, 
    "longitude": 2.97, 
    "region2": "Mediterranean and Western Asia", 
    "latitude": 45.775, 
    "type": "Lava dome(s)"
  }, 
  {
    "elevation": 1122, 
    "lastErupYear": "2011", 
    "evidence": "Eruption Observed", 
    "subregion": "Southern Chile and Argentina", 
    "pop030": 9280, 
    "pop100": 75311, 
    "name": "Chaiten", 
    "country": "Chile", 
    "pop010": 8968, 
    "pop005": 8968, 
    "longitude": -72.646, 
    "region2": "South America", 
    "latitude": -42.833, 
    "type": "Caldera"
  }, 
  {
    "elevation": 2744, 
    "lastErupYear": "1903", 
    "evidence": "Eruption Observed", 
    "subregion": "China (eastern)", 
    "pop030": 29476, 
    "pop100": 1660355, 
    "name": "Changbaishan", 
    "country": "China-North Korea", 
    "pop010": 1833, 
    "pop005": 268, 
    "longitude": 128.08, 
    "region2": "Kamchatka and Mainland Asia", 
    "latitude": 41.98, 
    "type": "Stratovolcano"
  }, 
  {
    "elevation": 1778, 
    "lastErupYear": "Unknown", 
    "evidence": "Evidence Uncertain", 
    "subregion": "Kamchatka Peninsula", 
    "pop030": 10, 
    "pop100": 10408, 
    "name": "Cherny", 
    "country": "Russia", 
    "pop010": 0, 
    "pop005": 0, 
    "longitude": 159.67, 
    "region2": "Kamchatka and Mainland Asia", 
    "latitude": 56.82, 
    "type": "Stratovolcano"
  }, 
  {
    "elevation": 1868, 
    "lastErupYear": "-4550", 
    "evidence": "Eruption Dated", 
    "subregion": "Kamchatka Peninsula", 
    "pop030": 32, 
    "pop100": 3323, 
    "name": "Cherpuk Group", 
    "country": "Russia", 
    "pop010": 0, 
    "pop005": 0, 
    "longitude": 157.47, 
    "region2": "Kamchatka and Mainland Asia", 
    "latitude": 55.55, 
    "type": "Pyroclastic cone(s)"
  }, 
  {
    "elevation": 3930, 
    "lastErupYear": "400", 
    "evidence": "Eruption Dated", 
    "subregion": "Mexico", 
    "pop030": 4061942, 
    "pop100": 28030794, 
    "name": "Chichinautzin", 
    "country": "Mexico", 
    "pop010": 584725, 
    "pop005": 584725, 
    "longitude": -99.13, 
    "region2": "M\u00e9xico and Central America", 
    "latitude": 19.08, 
    "type": "Volcanic field"
  }, 
  {
    "elevation": 1150, 
    "lastErupYear": "1982", 
    "evidence": "Eruption Observed", 
    "subregion": "Mexico", 
    "pop030": 143015, 
    "pop100": 3570632, 
    "name": "Chichon", 
    "country": "Mexico", 
    "pop010": 11000, 
    "pop005": 3759, 
    "longitude": -93.228, 
    "region2": "M\u00e9xico and Central America", 
    "latitude": 17.36, 
    "type": "Lava dome(s)"
  }, 
  {
    "elevation": 2221, 
    "lastErupYear": "1998", 
    "evidence": "Eruption Observed", 
    "subregion": "Alaska Peninsula", 
    "pop030": 0, 
    "pop100": 52, 
    "name": "Chiginagak", 
    "country": "United States", 
    "pop010": 0, 
    "pop005": 0, 
    "longitude": -156.99, 
    "region2": "Alaska", 
    "latitude": 57.135, 
    "type": "Stratovolcano"
  }, 
  {
    "elevation": 1781, 
    "lastErupYear": "2016", 
    "evidence": "Eruption Observed", 
    "subregion": "Kuril Islands", 
    "pop030": 527, 
    "pop100": 2492, 
    "name": "Chikurachki", 
    "country": "Russia", 
    "pop010": 65, 
    "pop005": 0, 
    "longitude": 155.461, 
    "region2": "Kuril Islands", 
    "latitude": 50.324, 
    "type": "Stratovolcano(es)"
  }, 
  {
    "elevation": 4698, 
    "lastErupYear": "1936", 
    "evidence": "Evidence Uncertain", 
    "subregion": "Colombia", 
    "pop030": 151519, 
    "pop100": 1826460, 
    "name": "Chiles-Cerro Negro", 
    "country": "Colombia-Ecuador", 
    "pop010": 4573, 
    "pop005": 977, 
    "longitude": -77.938, 
    "region2": "South America", 
    "latitude": 0.817, 
    "type": "Stratovolcano"
  }, 
  {
    "elevation": 5778, 
    "lastErupYear": "Unknown", 
    "evidence": "Evidence Uncertain", 
    "subregion": "Northern Chile, Bolivia and Argentina", 
    "pop030": 368, 
    "pop100": 6797, 
    "name": "Chiliques", 
    "country": "Chile", 
    "pop010": 2, 
    "pop005": 0, 
    "longitude": -67.7, 
    "region2": "South America", 
    "latitude": -23.58, 
    "type": "Stratovolcano"
  }, 
  {
    "elevation": 3212, 
    "lastErupYear": "2017", 
    "evidence": "Eruption Observed", 
    "subregion": "Central Chile and Argentina", 
    "pop030": 3733, 
    "pop100": 512325, 
    "name": "Chillan", 
    "country": "Chile", 
    "pop010": 371, 
    "pop005": 68, 
    "longitude": -71.377, 
    "region2": "South America", 
    "latitude": -36.863, 
    "type": "Stratovolcano"
  }, 
  {
    "elevation": 6310, 
    "lastErupYear": "550", 
    "evidence": "Eruption Dated", 
    "subregion": "Ecuador", 
    "pop030": 463426, 
    "pop100": 2325666, 
    "name": "Chimborazo", 
    "country": "Ecuador", 
    "pop010": 7561, 
    "pop005": 442, 
    "longitude": -78.815, 
    "region2": "South America", 
    "latitude": -1.464, 
    "type": "Stratovolcano"
  }, 
  {
    "elevation": 1300, 
    "lastErupYear": "Unknown", 
    "evidence": "Evidence Credible", 
    "subregion": "El Salvador and Honduras", 
    "pop030": 824983, 
    "pop100": 4897760, 
    "name": "Chinameca", 
    "country": "El Salvador", 
    "pop010": 89206, 
    "pop005": 14998, 
    "longitude": -88.33, 
    "region2": "M\u00e9xico and Central America", 
    "latitude": 13.478, 
    "type": "Stratovolcano"
  }, 
  {
    "elevation": 1775, 
    "lastErupYear": "Unknown", 
    "evidence": "Evidence Credible", 
    "subregion": "Guatemala", 
    "pop030": 867678, 
    "pop100": 7235923, 
    "name": "Chingo", 
    "country": "Guatemala-El Salvador", 
    "pop010": 330595, 
    "pop005": 330595, 
    "longitude": -89.73, 
    "region2": "M\u00e9xico and Central America", 
    "latitude": 14.12, 
    "type": "Stratovolcano"
  }, 
  {
    "elevation": 1192, 
    "lastErupYear": "Unknown", 
    "evidence": "Evidence Credible", 
    "subregion": "Guatemala", 
    "pop030": 412617, 
    "pop100": 3740914, 
    "name": "Chiquimula Volcanic Field", 
    "country": "Guatemala", 
    "pop010": 240892, 
    "pop005": 240892, 
    "longitude": -89.55, 
    "region2": "M\u00e9xico and Central America", 
    "latitude": 14.83, 
    "type": "Pyroclastic cone(s)"
  }, 
  {
    "elevation": 1636, 
    "lastErupYear": "Unknown", 
    "evidence": "Evidence Uncertain", 
    "subregion": "Africa (northeastern) and Red Sea", 
    "pop030": 676872, 
    "pop100": 8954351, 
    "name": "Chiracha", 
    "country": "Ethiopia", 
    "pop010": 62234, 
    "pop005": 14959, 
    "longitude": 38.085, 
    "region2": "Africa and Red Sea", 
    "latitude": 6.712, 
    "type": "Stratovolcano"
  }, 
  {
    "elevation": 724, 
    "lastErupYear": "2017", 
    "evidence": "Eruption Observed", 
    "subregion": "Kuril Islands", 
    "pop030": 0, 
    "pop100": 6, 
    "name": "Chirinkotan", 
    "country": "Russia", 
    "pop010": 0, 
    "pop005": 0, 
    "longitude": 153.48, 
    "region2": "Kuril Islands", 
    "latitude": 48.98, 
    "type": "Stratovolcano"
  }, 
  {
    "elevation": 1587, 
    "lastErupYear": "1860", 
    "evidence": "Eruption Observed", 
    "subregion": "Kuril Islands", 
    "pop030": 1125, 
    "pop100": 4810, 
    "name": "Chirippusan [Chirip]", 
    "country": "Japan - administered by Russia", 
    "pop010": 372, 
    "pop005": 77, 
    "longitude": 147.92, 
    "region2": "Kuril Islands", 
    "latitude": 45.338, 
    "type": "Stratovolcano(es)"
  }, 
  {
    "elevation": 742, 
    "lastErupYear": "2016", 
    "evidence": "Eruption Observed", 
    "subregion": "Kuril Islands", 
    "pop030": 3, 
    "pop100": 491, 
    "name": "Chirpoi", 
    "country": "Russia", 
    "pop010": 1, 
    "pop005": 1, 
    "longitude": 150.871, 
    "region2": "Kuril Islands", 
    "latitude": 46.532, 
    "type": "Caldera"
  }, 
  {
    "elevation": 2236, 
    "lastErupYear": "1974", 
    "evidence": "Eruption Observed", 
    "subregion": "Honshu", 
    "pop030": 185681, 
    "pop100": 2301576, 
    "name": "Chokaisan", 
    "country": "Japan", 
    "pop010": 707, 
    "pop005": 131, 
    "longitude": 140.049, 
    "region2": "Japan, Taiwan, Marianas", 
    "latitude": 39.099, 
    "type": "Stratovolcano(es)"
  }, 
  {
    "elevation": 452, 
    "lastErupYear": "Unknown", 
    "evidence": "Evidence Uncertain", 
    "subregion": "Korea", 
    "pop030": 262911, 
    "pop100": 15245593, 
    "name": "Ch'uga-ryong", 
    "country": "North Korea-South Korea", 
    "pop010": 23030, 
    "pop005": 1668, 
    "longitude": 127.33, 
    "region2": "Kamchatka and Mainland Asia", 
    "latitude": 38.33, 
    "type": "Shield"
  }, 
  {
    "elevation": 5005, 
    "lastErupYear": "847", 
    "evidence": "Eruption Dated", 
    "subregion": "Alaska (eastern)", 
    "pop030": 0, 
    "pop100": 95, 
    "name": "Churchill", 
    "country": "United States", 
    "pop010": 0, 
    "pop005": 0, 
    "longitude": -141.75, 
    "region2": "Alaska", 
    "latitude": 61.38, 
    "type": "Stratovolcano"
  }, 
  {
    "elevation": 2188, 
    "lastErupYear": "1855", 
    "evidence": "Eruption Dated", 
    "subregion": "Africa (eastern)", 
    "pop030": 91280, 
    "pop100": 1784980, 
    "name": "Chyulu Hills", 
    "country": "Kenya", 
    "pop010": 14889, 
    "pop005": 14889, 
    "longitude": 37.88, 
    "region2": "Africa and Red Sea", 
    "latitude": -2.68, 
    "type": "Volcanic field"
  },