[
  {
    "status": "ANTHROPOLOGY", 
    "elevation": 1900, 
    "name": "'UWAYRID", 
    "latitude": 27.08, 
    "lastErupCode": "D6", 
    "region": "ARABIA-W", 
    "type": "VOLCANIC FIELD", 
    "longitude": 37.25
  }, 
  {
    "status": "HOLOCENE?", 
    "elevation": 571, 
    "name": "ABU", 
    "latitude": 34.5, 
    "lastErupCode": "?", 
    "region": "HONSHU-JAPAN", 
    "type": "SHIELD VOLCANOES", 
    "longitude": 131.6
  }, 
  {
    "status": "HOLOCENE?", 
    "elevation": 6046, 
    "name": "ACAMARACHI", 
    "latitude": -23.3, 
    "lastErupCode": "?", 
    "region": "CHILE-N", 
    "type": "STRATOVOLCANO", 
    "longitude": -67.62
  }, 
  {
    "status": "HISTORICAL", 
    "elevation": 3976, 
    "name": "ACATENANGO", 
    "latitude": 14.501, 
    "lastErupCode": "D1", 
    "region": "GUATEMALA", 
    "type": "STRATOVOLCANO", 
    "longitude": -90.876
  }, 
  {
    "status": "HOLOCENE", 
    "elevation": 1689, 
    "name": "ACIGOL-NEVSEHIR", 
    "latitude": 38.57, 
    "lastErupCode": "U", 
    "region": "TURKEY", 
    "type": "MAARS", 
    "longitude": 34.52
  }, 
  {
    "status": "HOLOCENE", 
    "elevation": 6052, 
    "name": "ACOTANGO", 
    "latitude": -18.37, 
    "lastErupCode": "U", 
    "region": "CHILE-N", 
    "type": "STRATOVOLCANOES", 
    "longitude": -69.05
  }, 
  {
    "status": "HOLOCENE", 
    "elevation": 645, 
    "name": "ADAGDAK", 
    "latitude": 51.98, 
    "lastErupCode": "U", 
    "region": "ALEUTIAN IS", 
    "type": "STRATOVOLCANO", 
    "longitude": -176.6
  }, 
  {
    "status": "TEPHROCHRONOLOGY", 
    "elevation": 3742, 
    "name": "ADAMS", 
    "latitude": 46.206, 
    "lastErupCode": "D6", 
    "region": "US-WASHINGTON", 
    "type": "STRATOVOLCANO", 
    "longitude": -121.49
  }, 
  {
    "status": "HISTORICAL", 
    "elevation": 1718, 
    "name": "ADATARA", 
    "latitude": 37.62, 
    "lastErupCode": "D1", 
    "region": "HONSHU-JAPAN", 
    "type": "STRATOVOLCANOES", 
    "longitude": 140.28
  }, 
  {
    "status": "HOLOCENE", 
    "elevation": 1733, 
    "name": "ADWA", 
    "latitude": 10.07, 
    "lastErupCode": "U", 
    "region": "ETHIOPIA", 
    "type": "STRATOVOLCANO", 
    "longitude": 40.84
  }, 
  {
    "status": "HOLOCENE?", 
    "elevation": 1295, 
    "name": "AFDERA", 
    "latitude": 13.08, 
    "lastErupCode": "?", 
    "region": "ETHIOPIA", 
    "type": "STRATOVOLCANO", 
    "longitude": 40.85
  }, 
  {
    "status": "HOLOCENE", 
    "elevation": 3560, 
    "name": "AGMAGAN-KARADAG", 
    "latitude": 40.275, 
    "lastErupCode": "U", 
    "region": "ARMENIA", 
    "type": "VOLCANIC FIELD", 
    "longitude": 44.75
  }, 
  {
    "status": "HISTORICAL", 
    "elevation": 965, 
    "name": "AGRIGAN", 
    "latitude": 18.77, 
    "lastErupCode": "D2", 
    "region": "MARIANA IS-C PACIFIC", 
    "type": "STRATOVOLCANO", 
    "longitude": 145.67
  }, 
  {
    "status": "HOLOCENE", 
    "elevation": 3760, 
    "name": "AGUA", 
    "latitude": 14.465, 
    "lastErupCode": "U", 
    "region": "GUATEMALA", 
    "type": "STRATOVOLCANO", 
    "longitude": -90.743
  }, 
  {
    "status": "HISTORICAL", 
    "elevation": 947, 
    "name": "AGUA DE PAU", 
    "latitude": 37.77, 
    "lastErupCode": "D5", 
    "region": "AZORES", 
    "type": "STRATOVOLCANO", 
    "longitude": -25.47
  }, 
  {
    "status": "RADIOCARBON", 
    "elevation": 0, 
    "name": "AGUILERA", 
    "latitude": -50.17, 
    "lastErupCode": "D7", 
    "region": "CHILE-S", 
    "type": "STRATOVOLCANO ?", 
    "longitude": -73.83
  }, 
  {
    "status": "HISTORICAL", 
    "elevation": 3142, 
    "name": "AGUNG", 
    "latitude": -8.342, 
    "lastErupCode": "D1", 
    "region": "LESSER SUNDA IS", 
    "type": "STRATOVOLCANO", 
    "longitude": 115.508
  }, 
  {
    "status": "UNCERTAIN", 
    "elevation": -137, 
    "name": "AHYI", 
    "latitude": 20.42, 
    "lastErupCode": "U", 
    "region": "MARIANA IS-C PACIFIC", 
    "type": "SUBMARINE VOLCANO", 
    "longitude": 145.03
  }, 
  {
    "status": "HISTORICAL", 
    "elevation": 1180, 
    "name": "AKADEMIA NAUK", 
    "latitude": 53.98, 
    "lastErupCode": "D1", 
    "region": "KAMCHATKA", 
    "type": "STRATOVOLCANOES", 
    "longitude": 159.45
  }, 
  {
    "status": "HISTORICAL", 
    "elevation": 1828, 
    "name": "AKAGI", 
    "latitude": 36.53, 
    "lastErupCode": "D6", 
    "region": "HONSHU-JAPAN", 
    "type": "STRATOVOLCANO", 
    "longitude": 139.18
  }, 
  {
    "status": "HISTORICAL", 
    "elevation": 1499, 
    "name": "AKAN", 
    "latitude": 43.38, 
    "lastErupCode": "D1", 
    "region": "HOKKAIDO-JAPAN", 
    "type": "CALDERA", 
    "longitude": 144.02
  }, 
  {
    "status": "HOLOCENE", 
    "elevation": 1956, 
    "name": "AKHTANG", 
    "latitude": 55.43, 
    "lastErupCode": "U", 
    "region": "KAMCHATKA", 
    "type": "SHIELD VOLCANO", 
    "longitude": 158.65
  }, 
  {
    "status": "HISTORICAL", 
    "elevation": 1637, 
    "name": "AKITA-KOMAGA-TAKE", 
    "latitude": 39.75, 
    "lastErupCode": "D1", 
    "region": "HONSHU-JAPAN", 
    "type": "STRATOVOLCANOES", 
    "longitude": 140.8
  }, 
  {
    "status": "HISTORICAL", 
    "elevation": 1366, 
    "name": "AKITA-YAKE-YAMA", 
    "latitude": 39.97, 
    "lastErupCode": "D1", 
    "region": "HONSHU-JAPAN", 
    "type": "COMPLEX VOLCANO", 
    "longitude": 140.77
  }, 
  {
    "status": "HOLOCENE", 
    "elevation": 586, 
    "name": "AKUSEKI-JIMA", 
    "latitude": 29.45, 
    "lastErupCode": "U", 
    "region": "RYUKYU IS", 
    "type": "STRATOVOLCANO", 
    "longitude": 129.6
  }, 
  {
    "status": "HISTORICAL", 
    "elevation": 1303, 
    "name": "AKUTAN", 
    "latitude": 54.13, 
    "lastErupCode": "D1", 
    "region": "ALEUTIAN IS", 
    "type": "STRATOVOLCANO", 
    "longitude": -165.97
  }, 
  {
    "status": "HISTORICAL", 
    "elevation": 2339, 
    "name": "ALAID", 
    "latitude": 50.858, 
    "lastErupCode": "D1", 
    "region": "KURIL IS", 
    "type": "STRATOVOLCANO", 
    "longitude": 155.55
  }, 
  {
    "status": "RADIOCARBON", 
    "elevation": 744, 
    "name": "ALAMAGAN", 
    "latitude": 17.6, 
    "lastErupCode": "D6", 
    "region": "MARIANA IS-C PACIFIC", 
    "type": "STRATOVOLCANO", 
    "longitude": 145.83
  }, 
  {
    "status": "HISTORICAL", 
    "elevation": 1501, 
    "name": "ALAYTA", 
    "latitude": 12.88, 
    "lastErupCode": "D2", 
    "region": "ETHIOPIA", 
    "type": "SHIELD VOLCANO", 
    "longitude": 40.57
  }, 
  {
    "status": "HOLOCENE?", 
    "elevation": 949, 
    "name": "ALBANO", 
    "latitude": 41.73, 
    "lastErupCode": "?", 
    "region": "ITALY", 
    "type": "CALDERA", 
    "longitude": 12.7
  }, 
  {
    "status": "HISTORICAL", 
    "elevation": 1130, 
    "name": "ALCEDO", 
    "latitude": -0.43, 
    "lastErupCode": "D1", 
    "region": "GALAPAGOS", 
    "type": "SHIELD VOLCANO", 
    "longitude": -91.12
  }, 
  {
    "status": "HOLOCENE", 
    "elevation": 1031, 
    "name": "ALE BAGU", 
    "latitude": 13.52, 
    "lastErupCode": "U", 
    "region": "ETHIOPIA", 
    "type": "STRATOVOLCANO", 
    "longitude": 40.63
  }, 
  {
    "status": "HOLOCENE", 
    "elevation": 904, 
    "name": "ALID", 
    "latitude": 14.88, 
    "lastErupCode": "U", 
    "region": "ETHIOPIA", 
    "type": "STRATOVOLCANO", 
    "longitude": 39.92
  }, 
  {
    "status": "HOLOCENE", 
    "elevation": 2217, 
    "name": "ALLIGATOR LAKE", 
    "latitude": 60.42, 
    "lastErupCode": "U", 
    "region": "CANADA", 
    "type": "VOLCANIC FIELD", 
    "longitude": -135.42
  }, 
  {
    "status": "HISTORICAL", 
    "elevation": 3197, 
    "name": "ALMOLONGA", 
    "latitude": 14.82, 
    "lastErupCode": "D3", 
    "region": "GUATEMALA", 
    "type": "STRATOVOLCANO", 
    "longitude": -91.48
  }, 
  {
    "status": "HOLOCENE", 
    "elevation": 2598, 
    "name": "ALNEY-CHASHAKONDZHA", 
    "latitude": 56.7, 
    "lastErupCode": "U", 
    "region": "KAMCHATKA", 
    "type": "STRATOVOLCANO", 
    "longitude": 159.65
  }, 
  {
    "status": "HOLOCENE", 
    "elevation": 1853, 
    "name": "ALNGEY", 
    "latitude": 57.7, 
    "lastErupCode": "U", 
    "region": "KAMCHATKA", 
    "type": "STRATOVOLCANO", 
    "longitude": 160.4
  }, 
  {
    "status": "HOLOCENE", 
    "elevation": 429, 
    "name": "ALU", 
    "latitude": 13.82, 
    "lastErupCode": "U", 
    "region": "ETHIOPIA", 
    "type": "FISSURE VENTS", 
    "longitude": 40.55
  }, 
  {
    "status": "HOLOCENE", 
    "elevation": 1000, 
    "name": "ALUCHIN GROUP", 
    "latitude": 66.12, 
    "lastErupCode": "U", 
    "region": "RUSSIA-NE", 
    "type": "PYROCLASTIC CONES", 
    "longitude": 165.63
  }, 
  {
    "status": "HOLOCENE", 
    "elevation": 2335, 
    "name": "ALUTU", 
    "latitude": 7.77, 
    "lastErupCode": "U", 
    "region": "ETHIOPIA", 
    "type": "STRATOVOLCANO", 
    "longitude": 38.78
  }, 
  {
    "status": "HISTORICAL", 
    "elevation": 513, 
    "name": "AMAK", 
    "latitude": 55.42, 
    "lastErupCode": "D4", 
    "region": "ALEUTIAN IS", 
    "type": "STRATOVOLCANO", 
    "longitude": -163.15
  }, 
  {
    "status": "HOLOCENE", 
    "elevation": 1030, 
    "name": "AMASING", 
    "latitude": -0.55, 
    "lastErupCode": "U", 
    "region": "HALMAHERA-INDONESIA", 
    "type": "STRATOVOLCANOES", 
    "longitude": 127.5
  }, 
  {
    "status": "FUMAROLIC", 
    "elevation": 2329, 
    "name": "AMBALATUNGAN GROUP", 
    "latitude": 17.32, 
    "lastErupCode": "U", 
    "region": "LUZON-PHILIPPINES", 
    "type": "COMPOUND VOLCANO", 
    "longitude": 121.1
  }, 
  {
    "status": "HISTORICAL", 
    "elevation": 1795, 
    "name": "AMBANG", 
    "latitude": 0.75, 
    "lastErupCode": "D3", 
    "region": "SULAWESI-INDONESIA", 
    "type": "COMPLEX VOLCANO", 
    "longitude": 124.42
  }, 
  {
    "status": "RADIOCARBON", 
    "elevation": 450, 
    "name": "AMBITLE", 
    "latitude": -4.08, 
    "lastErupCode": "D7", 
    "region": "NEW IRELAND-SW PACIF", 
    "type": "STRATOVOLCANO", 
    "longitude": 153.65
  }, 
  {
    "status": "HOLOCENE", 
    "elevation": 288, 
    "name": "AMBOY", 
    "latitude": 34.55, 
    "lastErupCode": "U", 
    "region": "US-CALIFORNIA", 
    "type": "CINDER CONE", 
    "longitude": -115.78
  }, 
  {
    "status": "HOLOCENE", 
    "elevation": 1475, 
    "name": "AMBRE-BOBAOMBY", 
    "latitude": -12.48, 
    "lastErupCode": "U", 
    "region": "MADAGASCAR", 
    "type": "VOLCANIC FIELD", 
    "longitude": 49.1
  }, 
  {
    "status": "HISTORICAL", 
    "elevation": 1334, 
    "name": "AMBRYM", 
    "latitude": -16.25, 
    "lastErupCode": "D1", 
    "region": "VANUATU-SW PACIFIC", 
    "type": "PYROCLASTIC SHIELD", 
    "longitude": 168.12
  }, 
  {
    "status": "PLEISTOCENE-FUMAROLIC", 
    "elevation": 1738, 
    "name": "AMIATA", 
    "latitude": 42.9, 
    "lastErupCode": "Q", 
    "region": "ITALY", 
    "type": "LAVA DOMES", 
    "longitude": 11.63
  }, 
  {
    "status": "FUMAROLIC", 
    "elevation": 376, 
    "name": "AMORONG", 
    "latitude": 15.828, 
    "lastErupCode": "U", 
    "region": "LUZON-PHILIPPINES", 
    "type": "UNKNOWN", 
    "longitude": 120.805
  }, 
  {
    "status": "HOLOCENE", 
    "elevation": 881, 
    "name": "AMSTERDAM ISLAND", 
    "latitude": -37.83, 
    "lastErupCode": "U", 
    "region": "INDIAN O-S", 
    "type": "STRATOVOLCANO", 
    "longitude": 77.52
  }, 
  {
    "status": "HISTORICAL", 
    "elevation": 1066, 
    "name": "AMUKTA", 
    "latitude": 52.5, 
    "lastErupCode": "D1", 
    "region": "ALEUTIAN IS", 
    "type": "STRATOVOLCANO", 
    "longitude": -171.25
  }, 
  {
    "status": "HOLOCENE?", 
    "elevation": 5750, 
    "name": "ANALLAJSI", 
    "latitude": -17.92, 
    "lastErupCode": "?", 
    "region": "BOLIVIA", 
    "type": "STRATOVOLCANO", 
    "longitude": -68.92
  }, 
  {
    "status": "HOLOCENE", 
    "elevation": 788, 
    "name": "ANATAHAN", 
    "latitude": 16.35, 
    "lastErupCode": "U", 
    "region": "MARIANA IS-C PACIFIC", 
    "type": "STRATOVOLCANO", 
    "longitude": 145.67
  }, 
  {
    "status": "HOLOCENE", 
    "elevation": 1828, 
    "name": "ANAUN", 
    "latitude": 56.32, 
    "lastErupCode": "U", 
    "region": "KAMCHATKA", 
    "type": "STRATOVOLCANO", 
    "longitude": 158.83
  }, 
  {
    "status": "HOLOCENE", 
    "elevation": 4713, 
    "name": "ANDAHUA VALLEY", 
    "latitude": -15.42, 
    "lastErupCode": "U", 
    "region": "PERU", 
    "type": "CINDER CONES", 
    "longitude": -72.33
  }, 
  {
    "status": "HOLOCENE?", 
    "elevation": 2978, 
    "name": "ANDRUS", 
    "latitude": -75.8, 
    "lastErupCode": "?", 
    "region": "ANTARCTICA", 
    "type": "SHIELD VOLCANOES", 
    "longitude": -132.33
  }, 
  {
    "status": "HOLOCENE?", 
    "elevation": 852, 
    "name": "ANEITYUM", 
    "latitude": -20.2, 
    "lastErupCode": "?", 
    "region": "VANUATU-SW PACIFIC", 
    "type": "STRATOVOLCANOES", 
    "longitude": 169.83
  }, 
  {
    "status": "HISTORICAL", 
    "elevation": 1341, 
    "name": "ANIAKCHAK", 
    "latitude": 56.88, 
    "lastErupCode": "D2", 
    "region": "ALASKA PENINSULA", 
    "type": "CALDERA", 
    "longitude": -158.17
  }, 
  {
    "status": "TEPHROCHRONOLOGY", 
    "elevation": 1050, 
    "name": "ANJUISKY", 
    "latitude": 67.17, 
    "lastErupCode": "D5", 
    "region": "RUSSIA-NE", 
    "type": "PYROCLASTIC CONES", 
    "longitude": 165.2
  }, 
  {
    "status": "HOLOCENE", 
    "elevation": 2878, 
    "name": "ANKAIZINA FIELD", 
    "latitude": -14.3, 
    "lastErupCode": "U", 
    "region": "MADAGASCAR", 
    "type": "CINDER CONES", 
    "longitude": 48.67
  }, 
  {
    "status": "HOLOCENE", 
    "elevation": 2644, 
    "name": "ANKARATRA FIELD", 
    "latitude": -19.4, 
    "lastErupCode": "U", 
    "region": "MADAGASCAR", 
    "type": "CINDER CONES", 
    "longitude": 47.2
  }, 
  {
    "status": "HOLOCENE", 
    "elevation": 1990, 
    "name": "ANTILLANCA GROUP", 
    "latitude": -40.771, 
    "lastErupCode": "U", 
    "region": "CHILE-C", 
    "type": "STRATOVOLCANOES", 
    "longitude": -72.153
  }, 
  {
    "status": "HOLOCENE?", 
    "elevation": 402, 
    "name": "ANTIPODES ISLAND", 
    "latitude": -49.68, 
    "lastErupCode": "?", 
    "region": "PACIFIC-S", 
    "type": "PYROCLASTIC CONES", 
    "longitude": 178.77
  }, 
  {
    "status": "HISTORICAL", 
    "elevation": 5753, 
    "name": "ANTISANA", 
    "latitude": -0.481, 
    "lastErupCode": "D3", 
    "region": "ECUADOR", 
    "type": "STRATOVOLCANO", 
    "longitude": -78.141
  }, 
  {
    "status": "HOLOCENE", 
    "elevation": 4000, 
    "name": "ANTOFAGASTA DE LA SIERRA", 
    "latitude": -26.08, 
    "lastErupCode": "U", 
    "region": "ARGENTINA", 
    "type": "SCORIA CONES", 
    "longitude": -67.5
  }, 
  {
    "status": "HOLOCENE", 
    "elevation": 6100, 
    "name": "ANTOFALLA", 
    "latitude": -25.53, 
    "lastErupCode": "U", 
    "region": "ARGENTINA", 
    "type": "STRATOVOLCANO", 
    "longitude": -68.0
  }, 
  {
    "status": "HISTORICAL", 
    "elevation": 2979, 
    "name": "ANTUCO", 
    "latitude": -37.406, 
    "lastErupCode": "D3", 
    "region": "CHILE-C", 
    "type": "STRATOVOLCANO", 
    "longitude": -71.349
  }, 
  {
    "status": "HISTORICAL", 
    "elevation": 1496, 
    "name": "AOBA", 
    "latitude": -15.4, 
    "lastErupCode": "D1", 
    "region": "VANUATU-SW PACIFIC", 
    "type": "SHIELD VOLCANO", 
    "longitude": 167.83
  }, 
  {
    "status": "HISTORICAL", 
    "elevation": 423, 
    "name": "AOGA-SHIMA", 
    "latitude": 32.45, 
    "lastErupCode": "D4", 
    "region": "IZU IS-JAPAN", 
    "type": "STRATOVOLCANO", 
    "longitude": 139.77
  }, 
  {
    "status": "HOLOCENE", 
    "elevation": 2036, 
    "name": "APANECA RANGE", 
    "latitude": 13.891, 
    "lastErupCode": "U", 
    "region": "EL SALVADOR", 
    "type": "STRATOVOLCANOES", 
    "longitude": -89.786
  }, 
  {
    "status": "HOLOCENE", 
    "elevation": 700, 
    "name": "APASTEPEQUE FIELD", 
    "latitude": 13.72, 
    "lastErupCode": "U", 
    "region": "EL SALVADOR", 
    "type": "VOLCANIC FIELD", 
    "longitude": -88.77
  }, 
  {
    "status": "FUMAROLIC", 
    "elevation": 2954, 
    "name": "APO", 
    "latitude": 6.987, 
    "lastErupCode": "U", 
    "region": "MINDANAO-PHILIPPINES", 
    "type": "STRATOVOLCANO", 
    "longitude": 125.273
  }, 
  {
    "status": "RADIOCARBON", 
    "elevation": 518, 
    "name": "APOYEQUE", 
    "latitude": 12.242, 
    "lastErupCode": "D7", 
    "region": "NICARAGUA", 
    "type": "PYROCLASTIC SHIELD", 
    "longitude": -86.342
  }, 
  {
    "status": "HISTORICAL", 
    "elevation": 6082, 
    "name": "ARACAR", 
    "latitude": -24.27, 
    "lastErupCode": "D1", 
    "region": "ARGENTINA", 
    "type": "STRATOVOLCANO", 
    "longitude": -67.77
  }, 
  {
    "status": "HOLOCENE", 
    "elevation": 4090, 
    "name": "ARAGATS", 
    "latitude": 40.55, 
    "lastErupCode": "U", 
    "region": "ARMENIA", 
    "type": "STRATOVOLCANO", 
    "longitude": 44.12
  }, 
  {
    "status": "HOLOCENE", 
    "elevation": 180, 
    "name": "ARAMUACA", 
    "latitude": 13.428, 
    "lastErupCode": "U", 
    "region": "EL SALVADOR", 
    "type": "MAAR", 
    "longitude": -88.105
  }, 
  {
    "status": "HOLOCENE", 
    "elevation": 5165, 
    "name": "ARARAT", 
    "latitude": 39.7, 
    "lastErupCode": "U", 
    "region": "TURKEY", 
    "type": "STRATOVOLCANO", 
    "longitude": 44.28
  }, 
  {
    "status": "HOLOCENE", 
    "elevation": 1026, 
    "name": "ARAYAT", 
    "latitude": 15.2, 
    "lastErupCode": "U", 
    "region": "LUZON-PHILIPPINES", 
    "type": "STRATOVOLCANO", 
    "longitude": 120.742
  }, 
  {
    "status": "HISTORICAL", 
    "elevation": 298, 
    "name": "ARDOUKOBA", 
    "latitude": 11.58, 
    "lastErupCode": "D1", 
    "region": "DJIBOUTI", 
    "type": "FISSURE VENTS", 
    "longitude": 42.47
  }, 
  {
    "status": "HISTORICAL", 
    "elevation": 1657, 
    "name": "ARENAL", 
    "latitude": 10.463, 
    "lastErupCode": "D1", 
    "region": "COSTA RICA", 
    "type": "STRATOVOLCANO", 
    "longitude": -84.703
  }, 
  {
    "status": "HISTORICAL", 
    "elevation": 3100, 
    "name": "ARHAB", 
    "latitude": 15.63, 
    "lastErupCode": "D6", 
    "region": "ARABIA-S", 
    "type": "VOLCANIC FIELD", 
    "longitude": 44.08
  }, 
  {
    "status": "HOLOCENE", 
    "elevation": 5597, 
    "name": "ARINTICA", 
    "latitude": -18.73, 
    "lastErupCode": "U", 
    "region": "CHILE-N", 
    "type": "STRATOVOLCANOES", 
    "longitude": -69.05
  }, 
  {
    "status": "HISTORICAL", 
    "elevation": 3339, 
    "name": "ARJUNO-WELIRANG", 
    "latitude": -7.725, 
    "lastErupCode": "D2", 
    "region": "JAVA", 
    "type": "STRATOVOLCANO", 
    "longitude": 112.58
  }, 
  {
    "status": "HOLOCENE", 
    "elevation": 1910, 
    "name": "ASACHA", 
    "latitude": 52.355, 
    "lastErupCode": "U", 
    "region": "KAMCHATKA", 
    "type": "COMPLEX VOLCANO", 
    "longitude": 157.827
  }, 
  {
    "status": "HISTORICAL", 
    "elevation": 2560, 
    "name": "ASAMA", 
    "latitude": 36.4, 
    "lastErupCode": "D1", 
    "region": "HONSHU-JAPAN", 
    "type": "COMPLEX VOLCANO", 
    "longitude": 138.53
  }, 
  {
    "status": "HOLOCENE", 
    "elevation": 1200, 
    "name": "ASAVYO", 
    "latitude": 13.07, 
    "lastErupCode": "U", 
    "region": "ETHIOPIA", 
    "type": "SHIELD VOLCANO", 
    "longitude": 41.6
  }, 
  {
    "status": "HOLOCENE", 
    "elevation": 858, 
    "name": "ASCENSION", 
    "latitude": -7.95, 
    "lastErupCode": "U", 
    "region": "ATLANTIC-S", 
    "type": "STRATOVOLCANO", 
    "longitude": -14.37
  }, 
  {
    "status": "HISTORICAL", 
    "elevation": 1516, 
    "name": "ASKJA", 
    "latitude": 65.03, 
    "lastErupCode": "D2", 
    "region": "ICELAND-NE", 
    "type": "STRATOVOLCANO", 
    "longitude": -16.75
  }, 
  {
    "status": "HOLOCENE", 
    "elevation": 500, 
    "name": "ASMARA", 
    "latitude": 11.27, 
    "lastErupCode": "U", 
    "region": "ETHIOPIA", 
    "type": "PYROCLASTIC CONE", 
    "longitude": 41.52
  }, 
  {
    "status": "HISTORICAL", 
    "elevation": 1592, 
    "name": "ASO", 
    "latitude": 32.88, 
    "lastErupCode": "D1", 
    "region": "KYUSHU-JAPAN", 
    "type": "CALDERA", 
    "longitude": 131.1
  }, 
  {
    "status": "HOLOCENE", 
    "elevation": 987, 
    "name": "ASSAB VOLC FIELD", 
    "latitude": 12.95, 
    "lastErupCode": "U", 
    "region": "ETHIOPIA", 
    "type": "VOLCANIC FIELD", 
    "longitude": 42.43
  }, 
  {
    "status": "HISTORICAL", 
    "elevation": 857, 
    "name": "ASUNCION", 
    "latitude": 19.67, 
    "lastErupCode": "D2", 
    "region": "MARIANA IS-C PACIFIC", 
    "type": "STRATOVOLCANO", 
    "longitude": 145.4
  }, 
  {
    "status": "RADIOCARBON", 
    "elevation": 4463, 
    "name": "ATACAZO", 
    "latitude": -0.353, 
    "lastErupCode": "D7", 
    "region": "ECUADOR", 
    "type": "STRATOVOLCANO", 
    "longitude": -78.617
  }, 
  {
    "status": "HISTORICAL", 
    "elevation": 3535, 
    "name": "ATITLAN", 
    "latitude": 14.583, 
    "lastErupCode": "D3", 
    "region": "GUATEMALA", 
    "type": "STRATOVOLCANO", 
    "longitude": -91.186
  }, 
  {
    "status": "HISTORICAL", 
    "elevation": 1533, 
    "name": "ATKA", 
    "latitude": 52.38, 
    "lastErupCode": "D1", 
    "region": "ALEUTIAN IS", 
    "type": "STRATOVOLCANOES", 
    "longitude": -174.15
  }, 
  {
    "status": "HOLOCENE", 
    "elevation": 1764, 
    "name": "ATLASOVA", 
    "latitude": 57.97, 
    "lastErupCode": "U", 
    "region": "KAMCHATKA", 
    "type": "SHIELD VOLCANOES", 
    "longitude": 160.65
  }, 
  {
    "status": "HOLOCENE", 
    "elevation": 800, 
    "name": "ATLIXCOS", 
    "latitude": 19.809, 
    "lastErupCode": "U", 
    "region": "MEXICO", 
    "type": "SHIELD VOLCANO", 
    "longitude": -96.526
  }, 
  {
    "status": "HISTORICAL", 
    "elevation": 1205, 
    "name": "ATSONUPURI", 
    "latitude": 44.804, 
    "lastErupCode": "D2", 
    "region": "KURIL IS", 
    "type": "STRATOVOLCANO", 
    "longitude": 147.13
  }, 
  {
    "status": "HOLOCENE", 
    "elevation": 6176, 
    "name": "AUCANQUILCHA", 
    "latitude": -21.22, 
    "lastErupCode": "U", 
    "region": "CHILE-N", 
    "type": "STRATOVOLCANO", 
    "longitude": -68.47
  }, 
  {
    "status": "RADIOCARBON", 
    "elevation": 260, 
    "name": "AUCKLAND FIELD", 
    "latitude": -36.9, 
    "lastErupCode": "D6", 
    "region": "NEW ZEALAND", 
    "type": "VOLCANIC FIELD", 
    "longitude": 174.87
  }, 
  {
    "status": "HISTORICAL", 
    "elevation": 1252, 
    "name": "AUGUSTINE", 
    "latitude": 59.37, 
    "lastErupCode": "D1", 
    "region": "ALASKA-SW", 
    "type": "LAVA DOMES", 
    "longitude": -153.42
  }, 
  {
    "status": "HISTORICAL", 
    "elevation": 2741, 
    "name": "AVACHINSKY", 
    "latitude": 53.255, 
    "lastErupCode": "D1", 
    "region": "KAMCHATKA", 
    "type": "STRATOVOLCANO", 
    "longitude": 158.83
  }, 
  {
    "status": "HISTORICAL", 
    "elevation": 1320, 
    "name": "AWU", 
    "latitude": 3.67, 
    "lastErupCode": "D1", 
    "region": "SANGIHE IS-INDONESIA", 
    "type": "STRATOVOLCANO", 
    "longitude": 125.5
  }, 
  {
    "status": "HISTORICAL", 
    "elevation": -1500, 
    "name": "AXIAL SEAMOUNT", 
    "latitude": 45.95, 
    "lastErupCode": "D1", 
    "region": "PACIFIC-NE", 
    "type": "SUBMARINE VOLCANO", 
    "longitude": -130.0
  }, 
  {
    "status": "HOLOCENE", 
    "elevation": 2145, 
    "name": "AYELU", 
    "latitude": 10.082, 
    "lastErupCode": "U", 
    "region": "ETHIOPIA", 
    "type": "STRATOVOLCANO", 
    "longitude": 40.702
  }, 
  {
    "status": "RADIOCARBON", 
    "elevation": 4070, 
    "name": "AZUFRAL", 
    "latitude": 1.08, 
    "lastErupCode": "D7", 
    "region": "COLOMBIA", 
    "type": "STRATOVOLCANO", 
    "longitude": -77.68
  }, 
  {
    "status": "HOLOCENE", 
    "elevation": 5846, 
    "name": "AZUFRE", 
    "latitude": -21.78, 
    "lastErupCode": "U", 
    "region": "CHILE-N", 
    "type": "STRATOVOLCANO", 
    "longitude": -68.23
  }, 
  {
    "status": "HISTORICAL", 
    "elevation": 1690, 
    "name": "AZUL", 
    "latitude": -0.9, 
    "lastErupCode": "D1", 
    "region": "GALAPAGOS", 
    "type": "SHIELD VOLCANO", 
    "longitude": -91.42
  }, 
  {
    "status": "HISTORICAL", 
    "elevation": 3788, 
    "name": "AZUL", 
    "latitude": -35.653, 
    "lastErupCode": "D1", 
    "region": "CHILE-C", 
    "type": "STRATOVOLCANO", 
    "longitude": -70.761
  }, 
  {
    "status": "HOLOCENE", 
    "elevation": 201, 
    "name": "AZUL", 
    "latitude": 12.53, 
    "lastErupCode": "U", 
    "region": "NICARAGUA", 
    "type": "CINDER CONES", 
    "longitude": -83.87
  }, 
  {
    "status": "HISTORICAL", 
    "elevation": 2024, 
    "name": "AZUMA", 
    "latitude": 37.73, 
    "lastErupCode": "D1", 
    "region": "HONSHU-JAPAN", 
    "type": "STRATOVOLCANOES", 
    "longitude": 140.25
  }, 
  {
    "status": "HISTORICAL", 
    "elevation": 1180, 
    "name": "BABUYAN CLARO", 
    "latitude": 19.523, 
    "lastErupCode": "D2", 
    "region": "LUZON-N OF", 
    "type": "STRATOVOLCANOES", 
    "longitude": 121.94
  }, 
  {
    "status": "TEPHROCHRONOLOGY", 
    "elevation": 2763, 
    "name": "BACHELOR", 
    "latitude": 43.979, 
    "lastErupCode": "D7", 
    "region": "US-OREGON", 
    "type": "STRATOVOLCANO", 
    "longitude": -121.688
  }, 
  {
    "status": "HISTORICAL", 
    "elevation": 1750, 
    "name": "BAGANA", 
    "latitude": -6.14, 
    "lastErupCode": "D1", 
    "region": "BOUGAINVILLE-SW PACI", 
    "type": "LAVA CONE", 
    "longitude": 155.195
  }, 
  {
    "status": "HISTORICAL", 
    "elevation": 2744, 
    "name": "BAITOUSHAN", 
    "latitude": 41.98, 
    "lastErupCode": "D4", 
    "region": "CHINA-E", 
    "type": "STRATOVOLCANO", 
    "longitude": 128.08
  }, 
  {
    "status": "TEPHROCHRONOLOGY", 
    "elevation": 2278, 
    "name": "BAKENIN", 
    "latitude": 53.905, 
    "lastErupCode": "D7", 
    "region": "KAMCHATKA", 
    "type": "STRATOVOLCANO", 
    "longitude": 158.07
  }, 
  {
    "status": "HISTORICAL", 
    "elevation": 3285, 
    "name": "BAKER", 
    "latitude": 48.786, 
    "lastErupCode": "D3", 
    "region": "US-WASHINGTON", 
    "type": "STRATOVOLCANO", 
    "longitude": -121.82
  }, 
  {
    "status": "HOLOCENE", 
    "elevation": 233, 
    "name": "BAL HAF", 
    "latitude": 14.05, 
    "lastErupCode": "U", 
    "region": "ARABIA-S", 
    "type": "VOLCANIC FIELD", 
    "longitude": 48.33
  }, 
  {
    "status": "HISTORICAL", 
    "elevation": 993, 
    "name": "BALAGAN-TAS", 
    "latitude": 66.43, 
    "lastErupCode": "D4", 
    "region": "RUSSIA-NE", 
    "type": "CINDER CONE", 
    "longitude": 143.73
  }, 
  {
    "status": "FUMAROLIC", 
    "elevation": 2450, 
    "name": "BALATOCAN", 
    "latitude": 8.8, 
    "lastErupCode": "U", 
    "region": "MINDANAO-PHILIPPINES", 
    "type": "COMPOUND VOLCANO", 
    "longitude": 124.92
  }, 
  {
    "status": "HOLOCENE", 
    "elevation": 2715, 
    "name": "BALBI", 
    "latitude": -5.83, 
    "lastErupCode": "U", 
    "region": "BOUGAINVILLE-SW PACI", 
    "type": "STRATOVOLCANO", 
    "longitude": 154.98
  }, 
  {
    "status": "HOLOCENE?", 
    "elevation": 2135, 
    "name": "BALD KNOLL", 
    "latitude": 37.328, 
    "lastErupCode": "?", 
    "region": "US-UTAH", 
    "type": "CINDER CONES", 
    "longitude": -112.408
  }, 
  {
    "status": "HOLOCENE?", 
    "elevation": 254, 
    "name": "BALUAN", 
    "latitude": -2.57, 
    "lastErupCode": "U", 
    "region": "ADMIRALTY IS-SW PACI", 
    "type": "STRATOVOLCANO", 
    "longitude": 147.28
  }, 
  {
    "status": "HOLOCENE?", 
    "elevation": 1247, 
    "name": "BALURAN", 
    "latitude": -7.85, 
    "lastErupCode": "?", 
    "region": "JAVA", 
    "type": "STRATOVOLCANO", 
    "longitude": 114.37
  }, 
  {
    "status": "HOLOCENE", 
    "elevation": 852, 
    "name": "BALUT", 
    "latitude": 5.4, 
    "lastErupCode": "U", 
    "region": "MINDANAO-PHILIPPINES", 
    "type": "STRATOVOLCANO", 
    "longitude": 125.375
  }, 
  {
    "status": "HISTORICAL", 
    "elevation": 685, 
    "name": "BAM", 
    "latitude": -3.6, 
    "lastErupCode": "D2", 
    "region": "NEW GUINEA-NE OF", 
    "type": "STRATOVOLCANO", 
    "longitude": 144.85
  }, 
  {
    "status": "ANTHROPOLOGY", 
    "elevation": 2248, 
    "name": "BAMUS", 
    "latitude": -5.2, 
    "lastErupCode": "D3", 
    "region": "NEW BRITAIN-SW PAC", 
    "type": "STRATOVOLCANO", 
    "longitude": 151.23
  }, 
  {
    "status": "HOLOCENE", 
    "elevation": 2158, 
    "name": "BANAHAO", 
    "latitude": 14.07, 
    "lastErupCode": "U", 
    "region": "LUZON-PHILIPPINES", 
    "type": "COMPLEX VOLCANO", 
    "longitude": 121.48
  }, 
  {
    "status": "HISTORICAL", 
    "elevation": 640, 
    "name": "BANDA API", 
    "latitude": -4.525, 
    "lastErupCode": "D1", 
    "region": "BANDA SEA", 
    "type": "CALDERA", 
    "longitude": 129.871
  }, 
  {
    "status": "HISTORICAL", 
    "elevation": 1819, 
    "name": "BANDAI", 
    "latitude": 37.6, 
    "lastErupCode": "D3", 
    "region": "HONSHU-JAPAN", 
    "type": "STRATOVOLCANO", 
    "longitude": 140.08
  }, 
  {
    "status": "HISTORICAL", 
    "elevation": -5, 
    "name": "BANUA WUHU", 
    "latitude": 3.138, 
    "lastErupCode": "D2", 
    "region": "SANGIHE IS-INDONESIA", 
    "type": "SUBMARINE VOLCANO", 
    "longitude": 125.491
  }, 
  {
    "status": "HISTORICAL", 
    "elevation": 1132, 
    "name": "BARANSKY", 
    "latitude": 45.1, 
    "lastErupCode": "D2", 
    "region": "KURIL IS", 
    "type": "STRATOVOLCANO", 
    "longitude": 148.02
  }, 
  {
    "status": "HISTORICAL", 
    "elevation": 332, 
    "name": "BARCENA", 
    "latitude": 19.3, 
    "lastErupCode": "D2", 
    "region": "MEXICO-IS", 
    "type": "CINDER CONES", 
    "longitude": -110.82
  }, 
  {
    "status": "HISTORICAL", 
    "elevation": 2000, 
    "name": "BARDARBUNGA", 
    "latitude": 64.63, 
    "lastErupCode": "D2", 
    "region": "ICELAND-NE", 
    "type": "STRATOVOLCANO", 
    "longitude": -17.53
  }, 
  {
    "status": "TEPHROCHRONOLOGY", 
    "elevation": 870, 
    "name": "BARKHATNAYA SOPKA", 
    "latitude": 52.823, 
    "lastErupCode": "D7", 
    "region": "KAMCHATKA", 
    "type": "LAVA DOMES", 
    "longitude": 158.27
  }, 
  {
    "status": "HISTORICAL", 
    "elevation": 354, 
    "name": "BARREN ISLAND", 
    "latitude": 12.292, 
    "lastErupCode": "D1", 
    "region": "ANDAMAN IS-INDIAN O", 
    "type": "STRATOVOLCANO", 
    "longitude": 93.875
  }, 
  {
    "status": "HISTORICAL", 
    "elevation": 1032, 
    "name": "BARRIER", 
    "latitude": 2.32, 
    "lastErupCode": "D2", 
    "region": "AFRICA-E", 
    "type": "SHIELD VOLCANO", 
    "longitude": 36.57
  }, 
  {
    "status": "HISTORICAL", 
    "elevation": 3477, 
    "name": "BARU", 
    "latitude": 8.8, 
    "lastErupCode": "D5", 
    "region": "PANAMA", 
    "type": "COMPLEX VOLCANO", 
    "longitude": -82.558
  }, 
  {
    "status": "TEPHROCHRONOLOGY", 
    "elevation": 2906, 
    "name": "BARVA", 
    "latitude": 10.135, 
    "lastErupCode": "D7", 
    "region": "COSTA RICA", 
    "type": "COMPLEX VOLCANO", 
    "longitude": -84.1
  }, 
  {
    "status": "HOLOCENE?", 
    "elevation": 392, 
    "name": "BAS DONG NAI", 
    "latitude": 10.8, 
    "lastErupCode": "?", 
    "region": "SE ASIA", 
    "type": "VOLCANIC FIELD", 
    "longitude": 107.2
  }, 
  {
    "status": "HISTORICAL", 
    "elevation": 1717, 
    "name": "BATUR", 
    "latitude": -8.242, 
    "lastErupCode": "D1", 
    "region": "LESSER SUNDA IS", 
    "type": "CALDERA", 
    "longitude": 115.375
  }, 
  {
    "status": "HOLOCENE", 
    "elevation": 5401, 
    "name": "BAYO", 
    "latitude": -25.42, 
    "lastErupCode": "U", 
    "region": "CHILE-N", 
    "type": "COMPLEX VOLCANO", 
    "longitude": -68.58
  }, 
  {
    "status": "HISTORICAL", 
    "elevation": 10, 
    "name": "BAYONNAISE ROCKS", 
    "latitude": 31.92, 
    "lastErupCode": "D1", 
    "region": "IZU IS-JAPAN", 
    "type": "SUBMARINE VOLCANO", 
    "longitude": 139.92
  }, 
  {
    "status": "RADIOCARBON", 
    "elevation": 0, 
    "name": "BAYUDA VOLC FIELD", 
    "latitude": 18.33, 
    "lastErupCode": "D6", 
    "region": "AFRICA-N", 
    "type": "CINDER CONES", 
    "longitude": 32.75
  }, 
  {
    "status": "FUMAROLIC", 
    "elevation": 3490, 
    "name": "BAZMAN", 
    "latitude": 28.07, 
    "lastErupCode": "U", 
    "region": "IRAN", 
    "type": "STRATOVOLCANO", 
    "longitude": 60.0
  }, 
  {
    "status": "HOLOCENE?", 
    "elevation": 500, 
    "name": "BEHM CANAL-RUDYERD BAY", 
    "latitude": 55.32, 
    "lastErupCode": "?", 
    "region": "ALASKA-SE", 
    "type": "CINDER CONES", 
    "longitude": -131.05
  }, 
  {
    "status": "HOLOCENE", 
    "elevation": 892, 
    "name": "BELENKAYA", 
    "latitude": 51.75, 
    "lastErupCode": "U", 
    "region": "KAMCHATKA", 
    "type": "STRATOVOLCANO", 
    "longitude": 157.27
  }, 
  {
    "status": "FUMAROLIC", 
    "elevation": 1958, 
    "name": "BELIRANG-BERITI", 
    "latitude": -2.82, 
    "lastErupCode": "U", 
    "region": "SUMATRA", 
    "type": "COMPOUND VOLCANO", 
    "longitude": 102.18
  }, 
  {
    "status": "RADIOCARBON", 
    "elevation": 2095, 
    "name": "BELKNAP", 
    "latitude": 44.285, 
    "lastErupCode": "D6", 
    "region": "US-OREGON", 
    "type": "SHIELD VOLCANOES", 
    "longitude": -121.841
  }, 
  {
    "status": "HOLOCENE", 
    "elevation": 2080, 
    "name": "BELY", 
    "latitude": 57.88, 
    "lastErupCode": "U", 
    "region": "KAMCHATKA", 
    "type": "SHIELD VOLCANOES", 
    "longitude": 160.53
  }, 
  {
    "status": "FUMAROLIC", 
    "elevation": 3478, 
    "name": "BERLIN", 
    "latitude": -76.05, 
    "lastErupCode": "U", 
    "region": "ANTARCTICA", 
    "type": "SHIELD VOLCANOES", 
    "longitude": -136.0
  }, 
  {
    "status": "HOLOCENE", 
    "elevation": 1100, 
    "name": "BERU", 
    "latitude": 8.95, 
    "lastErupCode": "U", 
    "region": "ETHIOPIA", 
    "type": "VOLCANIC FIELD", 
    "longitude": 39.75
  }, 
  {
    "status": "HOLOCENE", 
    "elevation": 1220, 
    "name": "BERUTARUBE", 
    "latitude": 44.47, 
    "lastErupCode": "U", 
    "region": "KURIL IS", 
    "type": "STRATOVOLCANO", 
    "longitude": 146.93
  }, 
  {
    "status": "HISTORICAL", 
    "elevation": 1899, 
    "name": "BESAR", 
    "latitude": -4.43, 
    "lastErupCode": "D2", 
    "region": "SUMATRA", 
    "type": "STRATOVOLCANO ?", 
    "longitude": 103.67
  }, 
  {
    "status": "HISTORICAL", 
    "elevation": 2882, 
    "name": "BEZYMIANNY", 
    "latitude": 55.978, 
    "lastErupCode": "D1", 
    "region": "KAMCHATKA", 
    "type": "STRATOVOLCANO", 
    "longitude": 160.587
  }, 
  {
    "status": "HOLOCENE", 
    "elevation": 900, 
    "name": "BIBINOI", 
    "latitude": -0.78, 
    "lastErupCode": "U", 
    "region": "HALMAHERA-INDONESIA", 
    "type": "STRATOVOLCANOES", 
    "longitude": 127.72
  }, 
  {
    "status": "HOLOCENE?", 
    "elevation": 1259, 
    "name": "BIG CAVE", 
    "latitude": 40.955, 
    "lastErupCode": "?", 
    "region": "US-CALIFORNIA", 
    "type": "SHIELD VOLCANO", 
    "longitude": -121.365
  }, 
  {
    "status": "HOLOCENE", 
    "elevation": 1700, 
    "name": "BILATE RIVER FIELD", 
    "latitude": 7.07, 
    "lastErupCode": "U", 
    "region": "ETHIOPIA", 
    "type": "MAARS", 
    "longitude": 38.1
  }, 
  {
    "status": "HISTORICAL", 
    "elevation": 1187, 
    "name": "BILIRAN", 
    "latitude": 11.523, 
    "lastErupCode": "D2", 
    "region": "PHILIPPINES-C", 
    "type": "COMPOUND VOLCANO", 
    "longitude": 124.534
  }, 
  {
    "status": "RADIOCARBON", 
    "elevation": 1544, 
    "name": "BILLY MITCHELL", 
    "latitude": -6.092, 
    "lastErupCode": "D5", 
    "region": "BOUGAINVILLE-SW PACI", 
    "type": "PYROCLASTIC SHIELD", 
    "longitude": 155.225
  }, 
  {
    "status": "HOLOCENE?", 
    "elevation": 0, 
    "name": "BIR BORHUT", 
    "latitude": 15.55, 
    "lastErupCode": "?", 
    "region": "ARABIA-S", 
    "type": "VOLCANIC FIELD", 
    "longitude": 50.63
  }, 
  {
    "status": "HOLOCENE", 
    "elevation": 1850, 
    "name": "BISHOFTU VOLC FIELD", 
    "latitude": 8.78, 
    "lastErupCode": "U", 
    "region": "ETHIOPIA", 
    "type": "FISSURE VENTS", 
    "longitude": 38.98
  }, 
  {
    "status": "HOLOCENE?", 
    "elevation": 0, 
    "name": "BIU PLATEAU", 
    "latitude": 10.75, 
    "lastErupCode": "?", 
    "region": "AFRICA-W", 
    "type": "VOLCANIC FIELD", 
    "longitude": 12.0
  }, 
  {
    "status": "RADIOCARBON", 
    "elevation": 1032, 
    "name": "BLACK PEAK", 
    "latitude": 56.53, 
    "lastErupCode": "D7", 
    "region": "ALASKA PENINSULA", 
    "type": "STRATOVOLCANO", 
    "longitude": -158.8
  }, 
  {
    "status": "RADIOCARBON", 
    "elevation": 1800, 
    "name": "BLACK ROCK DESERT", 
    "latitude": 38.97, 
    "lastErupCode": "D6", 
    "region": "US-UTAH", 
    "type": "VOLCANIC FIELD", 
    "longitude": -112.5
  }, 
  {
    "status": "HOLOCENE", 
    "elevation": 2268, 
    "name": "BLANCA", 
    "latitude": -36.286, 
    "lastErupCode": "U", 
    "region": "CHILE-C", 
    "type": "STRATOVOLCANO", 
    "longitude": -71.009
  }, 
  {
    "status": "HOLOCENE", 
    "elevation": 1244, 
    "name": "BLIZNETS", 
    "latitude": 56.97, 
    "lastErupCode": "U", 
    "region": "KAMCHATKA", 
    "type": "STRATOVOLCANO", 
    "longitude": 159.78
  }, 
  {
    "status": "RADIOCARBON", 
    "elevation": 1230, 
    "name": "BLUE LAKE CRATER", 
    "latitude": 44.42, 
    "lastErupCode": "D7", 
    "region": "US-OREGON", 
    "type": "MAAR", 
    "longitude": -121.77
  }, 
  {
    "status": "HOLOCENE", 
    "elevation": 402, 
    "name": "BLUP BLUP", 
    "latitude": -3.508, 
    "lastErupCode": "U", 
    "region": "NEW GUINEA-NE OF", 
    "type": "STRATOVOLCANO", 
    "longitude": 144.62
  }, 
  {
    "status": "HOLOCENE?", 
    "elevation": 738, 
    "name": "BOBROF", 
    "latitude": 51.9, 
    "lastErupCode": "?", 
    "region": "ALEUTIAN IS", 
    "type": "STRATOVOLCANO", 
    "longitude": -177.43
  }, 
  {
    "status": "HOLOCENE", 
    "elevation": 1634, 
    "name": "BOGATYR RIDGE", 
    "latitude": 44.83, 
    "lastErupCode": "U", 
    "region": "KURIL IS", 
    "type": "STRATOVOLCANO", 
    "longitude": 147.37
  }, 
  {
    "status": "HISTORICAL", 
    "elevation": 101, 
    "name": "BOGOSLOF", 
    "latitude": 53.93, 
    "lastErupCode": "D1", 
    "region": "ALEUTIAN IS", 
    "type": "SUBMARINE VOLCANO", 
    "longitude": -168.03
  }, 
  {
    "status": "PLEISTOCENE-FUMAROLIC", 
    "elevation": 300, 
    "name": "BOINA", 
    "latitude": 11.25, 
    "lastErupCode": "Q", 
    "region": "DJIBOUTI", 
    "type": "FUMAROLE FIELD", 
    "longitude": 41.83
  }, 
  {
    "status": "HOLOCENE?", 
    "elevation": 240, 
    "name": "BOISA", 
    "latitude": -3.994, 
    "lastErupCode": "U", 
    "region": "NEW GUINEA-NE OF", 
    "type": "STRATOVOLCANO", 
    "longitude": 144.963
  }, 
  {
    "status": "HOLOCENE", 
    "elevation": 1155, 
    "name": "BOLA", 
    "latitude": -5.15, 
    "lastErupCode": "U", 
    "region": "NEW BRITAIN-SW PAC", 
    "type": "STRATOVOLCANO", 
    "longitude": 150.03
  }, 
  {
    "status": "HOLOCENE", 
    "elevation": 1200, 
    "name": "BOLSHE-BANNAYA", 
    "latitude": 52.9, 
    "lastErupCode": "U", 
    "region": "KAMCHATKA", 
    "type": "LAVA DOMES", 
    "longitude": 157.78
  }, 
  {
    "status": "HOLOCENE", 
    "elevation": 1906, 
    "name": "BOLSHOI PAYALPAN", 
    "latitude": 55.88, 
    "lastErupCode": "U", 
    "region": "KAMCHATKA", 
    "type": "SHIELD VOLCANOES", 
    "longitude": 157.78
  }, 
  {
    "status": "RADIOCARBON", 
    "elevation": 1720, 
    "name": "BOLSHOI SEMIACHIK", 
    "latitude": 54.32, 
    "lastErupCode": "D7", 
    "region": "KAMCHATKA", 
    "type": "STRATOVOLCANOES", 
    "longitude": 160.02
  }, 
  {
    "status": "HOLOCENE", 
    "elevation": 1401, 
    "name": "BOLSHOI-KEKUKNAYSKY", 
    "latitude": 56.47, 
    "lastErupCode": "U", 
    "region": "KAMCHATKA", 
    "type": "SHIELD VOLCANOES", 
    "longitude": 157.8
  }, 
  {
    "status": "HOLOCENE?", 
    "elevation": 531, 
    "name": "BOMBALAI", 
    "latitude": 4.4, 
    "lastErupCode": "?", 
    "region": "BORNEO", 
    "type": "PYROCLASTIC CONE", 
    "longitude": 117.88
  }, 
  {
    "status": "RADIOCARBON", 
    "elevation": 5005, 
    "name": "BONA-CHURCHILL", 
    "latitude": 61.38, 
    "lastErupCode": "D6", 
    "region": "ALASKA-E", 
    "type": "STRATOVOLCANOES", 
    "longitude": -141.75
  }, 
  {
    "status": "HOLOCENE", 
    "elevation": 2285, 
    "name": "BORA-BERICCIO COMPLEX", 
    "latitude": 8.27, 
    "lastErupCode": "U", 
    "region": "ETHIOPIA", 
    "type": "PUMICE CONES", 
    "longitude": 39.03
  }, 
  {
    "status": "HOLOCENE", 
    "elevation": 668, 
    "name": "BORALE ALE", 
    "latitude": 13.725, 
    "lastErupCode": "U", 
    "region": "ETHIOPIA", 
    "type": "STRATOVOLCANO", 
    "longitude": 40.6
  }, 
  {
    "status": "HOLOCENE", 
    "elevation": 812, 
    "name": "BORAWLI", 
    "latitude": 13.3, 
    "lastErupCode": "U", 
    "region": "ETHIOPIA", 
    "type": "STRATOVOLCANO", 
    "longitude": 40.98
  }, 
  {
    "status": "HOLOCENE", 
    "elevation": 875, 
    "name": "BORAWLI COMPLEX", 
    "latitude": 11.63, 
    "lastErupCode": "U", 
    "region": "ETHIOPIA", 
    "type": "LAVA DOMES", 
    "longitude": 41.45
  }, 
  {
    "status": "HOLOCENE", 
    "elevation": 2447, 
    "name": "BOSET-BERICHA", 
    "latitude": 8.558, 
    "lastErupCode": "U", 
    "region": "ETHIOPIA", 
    "type": "STRATOVOLCANOES", 
    "longitude": 39.475
  }, 
  {
    "status": "MAGNETISM", 
    "elevation": 780, 
    "name": "BOUVET", 
    "latitude": -54.42, 
    "lastErupCode": "D7", 
    "region": "ATLANTIC-S", 
    "type": "SHIELD VOLCANO", 
    "longitude": 3.35
  }, 
  {
    "status": "HOLOCENE", 
    "elevation": 2276, 
    "name": "BRATAN", 
    "latitude": -8.28, 
    "lastErupCode": "U", 
    "region": "LESSER SUNDA IS", 
    "type": "CALDERA", 
    "longitude": 115.13
  }, 
  {
    "status": "HOLOCENE", 
    "elevation": 900, 
    "name": "BRAVA", 
    "latitude": 14.85, 
    "lastErupCode": "U", 
    "region": "CAPE VERDE IS", 
    "type": "STRATOVOLCANO", 
    "longitude": -24.72
  }, 
  {
    "status": "RADIOCARBON", 
    "elevation": 4000, 
    "name": "BRAVO", 
    "latitude": 5.092, 
    "lastErupCode": "D4", 
    "region": "COLOMBIA", 
    "type": "STRATOVOLCANO", 
    "longitude": -75.3
  }, 
  {
    "status": "HISTORICAL", 
    "elevation": 626, 
    "name": "BRENNISTEINSFJOLL", 
    "latitude": 63.92, 
    "lastErupCode": "D6", 
    "region": "ICELAND-SW", 
    "type": "CRATER ROWS", 
    "longitude": -21.83
  }, 
  {
    "status": "HOLOCENE", 
    "elevation": 2500, 
    "name": "BRIDGE RIVER CONES", 
    "latitude": 50.8, 
    "lastErupCode": "U", 
    "region": "CANADA", 
    "type": "VOLCANIC FIELD", 
    "longitude": -123.4
  }, 
  {
    "status": "UNCERTAIN", 
    "elevation": 240, 
    "name": "BRIDGEMAN ISLAND", 
    "latitude": -62.05, 
    "lastErupCode": "?", 
    "region": "ANTARCTICA", 
    "type": "STRATOVOLCANO", 
    "longitude": -56.75
  }, 
  {
    "status": "UNCERTAIN", 
    "elevation": -2000, 
    "name": "BRIMSTONE ISLAND", 
    "latitude": -30.23, 
    "lastErupCode": "?", 
    "region": "KERMADEC IS", 
    "type": "SUBMARINE VOLCANO ?", 
    "longitude": -178.92
  }, 
  {
    "status": "HISTORICAL", 
    "elevation": 1100, 
    "name": "BRISTOL ISLAND", 
    "latitude": -59.03, 
    "lastErupCode": "D2", 
    "region": "ANTARCTICA", 
    "type": "STRATOVOLCANO", 
    "longitude": -26.58
  }, 
  {
    "status": "HOLOCENE?", 
    "elevation": 1174, 
    "name": "BRUSHY BUTTE", 
    "latitude": 41.178, 
    "lastErupCode": "?", 
    "region": "US-CALIFORNIA", 
    "type": "SHIELD VOLCANO", 
    "longitude": -121.443
  }, 
  {
    "status": "HISTORICAL", 
    "elevation": 1239, 
    "name": "BUCKLE ISLAND", 
    "latitude": -66.8, 
    "lastErupCode": "D3", 
    "region": "ANTARCTICA", 
    "type": "STRATOVOLCANO", 
    "longitude": 163.25
  }, 
  {
    "status": "HISTORICAL", 
    "elevation": 440, 
    "name": "BUD DAJO", 
    "latitude": 5.95, 
    "lastErupCode": "D3", 
    "region": "SULU IS-PHILIPPINES", 
    "type": "PYROCLASTIC CONES", 
    "longitude": 121.07
  }, 
  {
    "status": "HOLOCENE?", 
    "elevation": 2440, 
    "name": "BUFUMBIRA", 
    "latitude": -1.23, 
    "lastErupCode": "?", 
    "region": "AFRICA-C", 
    "type": "CINDER CONES", 
    "longitude": 29.72
  }, 
  {
    "status": "HOLOCENE", 
    "elevation": 656, 
    "name": "BULDIR", 
    "latitude": 52.37, 
    "lastErupCode": "U", 
    "region": "ALEUTIAN IS", 
    "type": "STRATOVOLCANO", 
    "longitude": 175.98
  }, 
  {
    "status": "HISTORICAL", 
    "elevation": 1565, 
    "name": "BULUSAN", 
    "latitude": 12.77, 
    "lastErupCode": "D1", 
    "region": "LUZON-PHILIPPINES", 
    "type": "STRATOVOLCANO", 
    "longitude": 124.05
  }, 
  {
    "status": "HOLOCENE", 
    "elevation": 1554, 
    "name": "BUNYARUGURU FIELD", 
    "latitude": -0.2, 
    "lastErupCode": "U", 
    "region": "AFRICA-C", 
    "type": "EXPLOSION CRATERS", 
    "longitude": 30.08
  }, 
  {
    "status": "HISTORICAL", 
    "elevation": 1758, 
    "name": "BURNEY", 
    "latitude": -52.33, 
    "lastErupCode": "D2", 
    "region": "CHILE-S", 
    "type": "STRATOVOLCANO", 
    "longitude": -73.4
  }, 
  {
    "status": "HOLOCENE?", 
    "elevation": 1162, 
    "name": "BUS-OBO", 
    "latitude": 47.12, 
    "lastErupCode": "?", 
    "region": "MONGOLIA", 
    "type": "CINDER CONE", 
    "longitude": 109.08
  }, 
  {
    "status": "HOLOCENE", 
    "elevation": 2281, 
    "name": "BUTAJIRI-SILTI FIELD", 
    "latitude": 8.05, 
    "lastErupCode": "U", 
    "region": "ETHIOPIA", 
    "type": "FISSURE VENTS", 
    "longitude": 38.35
  }, 
  {
    "status": "RADIOCARBON", 
    "elevation": 830, 
    "name": "BUZZARD CREEK", 
    "latitude": 64.07, 
    "lastErupCode": "D7", 
    "region": "ALASKA-E", 
    "type": "TUFF RINGS", 
    "longitude": -148.42
  }, 
  {
    "status": "HOLOCENE", 
    "elevation": 945, 
    "name": "CABALIAN", 
    "latitude": 10.287, 
    "lastErupCode": "U", 
    "region": "PHILIPPINES-C", 
    "type": "STRATOVOLCANO", 
    "longitude": 125.22
  }, 
  {
    "status": "TEPHROCHRONOLOGY", 
    "elevation": 995, 
    "name": "CABURGA", 
    "latitude": -39.2, 
    "lastErupCode": "D7", 
    "region": "CHILE-C", 
    "type": "CINDER CONES", 
    "longitude": -71.83
  }, 
  {
    "status": "HOLOCENE", 
    "elevation": 1133, 
    "name": "CAGUA", 
    "latitude": 18.222, 
    "lastErupCode": "U", 
    "region": "LUZON-PHILIPPINES", 
    "type": "STRATOVOLCANO", 
    "longitude": 122.123
  }, 
  {
    "status": "HOLOCENE", 
    "elevation": 3508, 
    "name": "CALABOZOS", 
    "latitude": -35.558, 
    "lastErupCode": "U", 
    "region": "CHILE-C", 
    "type": "CALDERA", 
    "longitude": -70.496
  }, 
  {
    "status": "HISTORICAL", 
    "elevation": 646, 
    "name": "CALAYO", 
    "latitude": 7.877, 
    "lastErupCode": "D3", 
    "region": "MINDANAO-PHILIPPINES", 
    "type": "TUFF CONE", 
    "longitude": 125.068
  }, 
  {
    "status": "HISTORICAL", 
    "elevation": 2003, 
    "name": "CALBUCO", 
    "latitude": -41.326, 
    "lastErupCode": "D2", 
    "region": "CHILE-S", 
    "type": "STRATOVOLCANO", 
    "longitude": -72.614
  }, 
  {
    "status": "HISTORICAL", 
    "elevation": 3164, 
    "name": "CALLAQUI", 
    "latitude": -37.92, 
    "lastErupCode": "D1", 
    "region": "CHILE-C", 
    "type": "STRATOVOLCANO", 
    "longitude": -71.45
  }, 
  {
    "status": "HISTORICAL", 
    "elevation": 4095, 
    "name": "CAMEROON", 
    "latitude": 4.203, 
    "lastErupCode": "D1", 
    "region": "AFRICA-W", 
    "type": "STRATOVOLCANO", 
    "longitude": 9.17
  }, 
  {
    "status": "HISTORICAL", 
    "elevation": 712, 
    "name": "CAMIGUIN DE BABUYANES", 
    "latitude": 18.83, 
    "lastErupCode": "D3", 
    "region": "LUZON-N OF", 
    "type": "STRATOVOLCANO", 
    "longitude": 121.86
  }, 
  {
    "status": "HISTORICAL", 
    "elevation": 458, 
    "name": "CAMPI FLEGREI", 
    "latitude": 40.827, 
    "lastErupCode": "D5", 
    "region": "ITALY", 
    "type": "CALDERA", 
    "longitude": 14.139
  }, 
  {
    "status": "HISTORICAL", 
    "elevation": -8, 
    "name": "CAMPI FLEGREI MAR SICILIA", 
    "latitude": 37.1, 
    "lastErupCode": "D3", 
    "region": "ITALY", 
    "type": "SUBMARINE VOLCANOES", 
    "longitude": 12.7
  }, 
  {
    "status": "HISTORICAL", 
    "elevation": 550, 
    "name": "CANDLEMAS ISLAND", 
    "latitude": -57.08, 
    "lastErupCode": "D2", 
    "region": "ANTARCTICA", 
    "type": "STRATOVOLCANO", 
    "longitude": -26.67
  }, 
  {
    "status": "HISTORICAL", 
    "elevation": 2435, 
    "name": "CANLAON", 
    "latitude": 10.412, 
    "lastErupCode": "D1", 
    "region": "PHILIPPINES-C", 
    "type": "STRATOVOLCANO", 
    "longitude": 123.132
  }, 
  {
    "status": "HISTORICAL", 
    "elevation": 1620, 
    "name": "CARLISLE", 
    "latitude": 52.9, 
    "lastErupCode": "D3", 
    "region": "ALEUTIAN IS", 
    "type": "STRATOVOLCANO", 
    "longitude": -170.05
  }, 
  {
    "status": "HISTORICAL", 
    "elevation": 1114, 
    "name": "CARRAN-LOS VENADOS", 
    "latitude": -40.35, 
    "lastErupCode": "D1", 
    "region": "CHILE-C", 
    "type": "PYROCLASTIC CONES", 
    "longitude": -72.07
  }, 
  {
    "status": "HOLOCENE", 
    "elevation": 1731, 
    "name": "CARRIZOZO", 
    "latitude": 33.78, 
    "lastErupCode": "U", 
    "region": "US-NEW MEXICO", 
    "type": "CINDER CONE", 
    "longitude": -105.93
  }, 
  {
    "status": "HOLOCENE", 
    "elevation": 5650, 
    "name": "CASIRI", 
    "latitude": -17.47, 
    "lastErupCode": "U", 
    "region": "PERU", 
    "type": "STRATOVOLCANO", 
    "longitude": -69.82
  }, 
  {
    "status": "HISTORICAL", 
    "elevation": 5790, 
    "name": "CAYAMBE", 
    "latitude": 0.029, 
    "lastErupCode": "D4", 
    "region": "ECUADOR", 
    "type": "COMPOUND VOLCANO", 
    "longitude": -77.986
  }, 
  {
    "status": "HOLOCENE", 
    "elevation": 506, 
    "name": "CAYUTE-LA VIGUERIA", 
    "latitude": -41.25, 
    "lastErupCode": "U", 
    "region": "CHILE-S", 
    "type": "PYROCLASTIC CONES", 
    "longitude": -72.27
  }, 
  {
    "status": "HISTORICAL", 
    "elevation": 2280, 
    "name": "CEBORUCO", 
    "latitude": 21.125, 
    "lastErupCode": "D3", 
    "region": "MEXICO", 
    "type": "STRATOVOLCANO", 
    "longitude": -104.508
  }, 
  {
    "status": "HISTORICAL", 
    "elevation": -20, 
    "name": "CENDRES", 
    "latitude": 10.158, 
    "lastErupCode": "D2", 
    "region": "SE ASIA", 
    "type": "SUBMARINE VOLCANOES", 
    "longitude": 109.014
  }, 
  {
    "status": "HOLOCENE", 
    "elevation": 550, 
    "name": "CENTRAL ISLAND", 
    "latitude": 3.5, 
    "lastErupCode": "U", 
    "region": "AFRICA-E", 
    "type": "STRATOVOLCANO", 
    "longitude": 36.042
  }, 
  {
    "status": "HISTORICAL", 
    "elevation": 3078, 
    "name": "CEREME", 
    "latitude": -6.892, 
    "lastErupCode": "D2", 
    "region": "JAVA", 
    "type": "STRATOVOLCANO", 
    "longitude": 108.4
  }, 
  {
    "status": "HOLOCENE?", 
    "elevation": 452, 
    "name": "CH'UGA-RYONG", 
    "latitude": 38.33, 
    "lastErupCode": "?", 
    "region": "KOREA", 
    "type": "SHIELD VOLCANO", 
    "longitude": 127.33
  }, 
  {
    "status": "HISTORICAL", 
    "elevation": 4643, 
    "name": "CHACANA", 
    "latitude": -0.375, 
    "lastErupCode": "D4", 
    "region": "ECUADOR", 
    "type": "CALDERA", 
    "longitude": -78.25
  }, 
  {
    "status": "HOLOCENE", 
    "elevation": 6057, 
    "name": "CHACHANI", 
    "latitude": -16.191, 
    "lastErupCode": "U", 
    "region": "PERU", 
    "type": "STRATOVOLCANO", 
    "longitude": -71.53
  }, 
  {
    "status": "HOLOCENE", 
    "elevation": 1142, 
    "name": "CHAGULAK", 
    "latitude": 52.57, 
    "lastErupCode": "U", 
    "region": "ALEUTIAN IS", 
    "type": "STRATOVOLCANO", 
    "longitude": -171.13
  }, 
  {
    "status": "RADIOCARBON", 
    "elevation": 1464, 
    "name": "CHAINE DES PUYS", 
    "latitude": 45.5, 
    "lastErupCode": "D7", 
    "region": "FRANCE", 
    "type": "CINDER CONES", 
    "longitude": 2.75
  }, 
  {
    "status": "HOLOCENE", 
    "elevation": 962, 
    "name": "CHAITEN", 
    "latitude": -42.833, 
    "lastErupCode": "U", 
    "region": "CHILE-S", 
    "type": "CALDERA", 
    "longitude": -72.646
  }, 
  {
    "status": "HOLOCENE?", 
    "elevation": 5100, 
    "name": "CHAO", 
    "latitude": -22.12, 
    "lastErupCode": "?", 
    "region": "CHILE-N", 
    "type": "LAVA DOME", 
    "longitude": -68.15
  }, 
  {
    "status": "HOLOCENE", 
    "elevation": 2143, 
    "name": "CHAPULUL", 
    "latitude": -38.37, 
    "lastErupCode": "U", 
    "region": "CHILE-C", 
    "type": "CINDER CONE", 
    "longitude": -71.08
  }, 
  {
    "status": "HOLOCENE", 
    "elevation": 5125, 
    "name": "CHASCON", 
    "latitude": -21.88, 
    "lastErupCode": "U", 
    "region": "BOLIVIA", 
    "type": "LAVA DOME", 
    "longitude": -67.9
  }, 
  {
    "status": "HOLOCENE", 
    "elevation": 1778, 
    "name": "CHERNY", 
    "latitude": 56.82, 
    "lastErupCode": "U", 
    "region": "KAMCHATKA", 
    "type": "STRATOVOLCANO", 
    "longitude": 159.67
  }, 
  {
    "status": "RADIOCARBON", 
    "elevation": 3930, 
    "name": "CHICHINAUTZIN", 
    "latitude": 19.08, 
    "lastErupCode": "D6", 
    "region": "MEXICO", 
    "type": "VOLCANIC FIELD", 
    "longitude": -99.13
  }, 
  {
    "status": "HISTORICAL", 
    "elevation": 1150, 
    "name": "CHICHON", 
    "latitude": 17.36, 
    "lastErupCode": "D1", 
    "region": "MEXICO", 
    "type": "TUFF CONES", 
    "longitude": -93.228
  }, 
  {
    "status": "HISTORICAL", 
    "elevation": 2075, 
    "name": "CHIGINAGAK", 
    "latitude": 57.13, 
    "lastErupCode": "D1", 
    "region": "ALASKA PENINSULA", 
    "type": "STRATOVOLCANO", 
    "longitude": -157.0
  }, 
  {
    "status": "HISTORICAL", 
    "elevation": 1816, 
    "name": "CHIKURACHKI", 
    "latitude": 50.325, 
    "lastErupCode": "D1", 
    "region": "KURIL IS", 
    "type": "STRATOVOLCANOES", 
    "longitude": 155.458
  }, 
  {
    "status": "HOLOCENE", 
    "elevation": 5778, 
    "name": "CHILIQUES", 
    "latitude": -23.58, 
    "lastErupCode": "U", 
    "region": "CHILE-N", 
    "type": "STRATOVOLCANO", 
    "longitude": -67.7
  }, 
  {
    "status": "HISTORICAL", 
    "elevation": 3212, 
    "name": "CHILLAN", 
    "latitude": -36.863, 
    "lastErupCode": "D1", 
    "region": "CHILE-C", 
    "type": "STRATOVOLCANO", 
    "longitude": -71.377
  }, 
  {
    "status": "HOLOCENE", 
    "elevation": 1228, 
    "name": "CHINAMECA", 
    "latitude": 13.475, 
    "lastErupCode": "U", 
    "region": "EL SALVADOR", 
    "type": "STRATOVOLCANO", 
    "longitude": -88.32
  }, 
  {
    "status": "HOLOCENE", 
    "elevation": 1775, 
    "name": "CHINGO VOLC FIELD", 
    "latitude": 14.12, 
    "lastErupCode": "U", 
    "region": "GUATEMALA", 
    "type": "STRATOVOLCANO", 
    "longitude": -89.73
  }, 
  {
    "status": "HOLOCENE", 
    "elevation": 1192, 
    "name": "CHIQUIMULA VOLC FIELD", 
    "latitude": 14.83, 
    "lastErupCode": "U", 
    "region": "GUATEMALA", 
    "type": "CINDER CONES", 
    "longitude": -89.55
  }, 
  {
    "status": "HOLOCENE?", 
    "elevation": 1650, 
    "name": "CHIRACHA", 
    "latitude": 6.65, 
    "lastErupCode": "?", 
    "region": "ETHIOPIA", 
    "type": "STRATOVOLCANO", 
    "longitude": 38.12
  }, 
  {
    "status": "HISTORICAL", 
    "elevation": 724, 
    "name": "CHIRINKOTAN", 
    "latitude": 48.98, 
    "lastErupCode": "D1", 
    "region": "KURIL IS", 
    "type": "STRATOVOLCANO", 
    "longitude": 153.48
  }, 
  {
    "status": "HISTORICAL", 
    "elevation": 1589, 
    "name": "CHIRIP", 
    "latitude": 45.38, 
    "lastErupCode": "D3", 
    "region": "KURIL IS", 
    "type": "STRATOVOLCANOES", 
    "longitude": 147.92
  }, 
  {
    "status": "HISTORICAL", 
    "elevation": 742, 
    "name": "CHIRPOI", 
    "latitude": 46.525, 
    "lastErupCode": "D1", 
    "region": "KURIL IS", 
    "type": "CALDERA", 
    "longitude": 150.875
  }, 
  {
    "status": "HISTORICAL", 
    "elevation": 2237, 
    "name": "CHOKAI", 
    "latitude": 39.08, 
    "lastErupCode": "D1", 
    "region": "HONSHU-JAPAN", 
    "type": "STRATOVOLCANOES", 
    "longitude": 140.03
  }, 
  {
    "status": "ANTHROPOLOGY", 
    "elevation": 2188, 
    "name": "CHYULU HILLS", 
    "latitude": -2.68, 
    "lastErupCode": "D3", 
    "region": "AFRICA-E", 
    "type": "VOLCANIC FIELD", 
    "longitude": 37.88
  }, 
  {
    "status": "HOLOCENE?", 
    "elevation": 603, 
    "name": "CIGUATEPE", 
    "latitude": 12.53, 
    "lastErupCode": "?", 
    "region": "NICARAGUA", 
    "type": "STRATOVOLCANO", 
    "longitude": -86.142
  }, 
  {
    "status": "HOLOCENE?", 
    "elevation": 1956, 
    "name": "CINNAMON BUTTE", 
    "latitude": 43.241, 
    "lastErupCode": "?", 
    "region": "US-OREGON", 
    "type": "CINDER CONES", 
    "longitude": -122.108
  }, 
  {
    "status": "HOLOCENE", 
    "elevation": 665, 
    "name": "CINOTEPEC", 
    "latitude": 14.02, 
    "lastErupCode": "U", 
    "region": "EL SALVADOR", 
    "type": "VOLCANIC FIELD", 
    "longitude": -89.25
  }, 
  {
    "status": "HOLOCENE", 
    "elevation": 1439, 
    "name": "CLEAR LAKE", 
    "latitude": 38.97, 
    "lastErupCode": "U", 
    "region": "US-CALIFORNIA", 
    "type": "VOLCANIC FIELD", 
    "longitude": -122.77
  }, 
  {
    "status": "HISTORICAL", 
    "elevation": -2140, 
    "name": "CLEFT SEGMENT", 
    "latitude": 44.83, 
    "lastErupCode": "D1", 
    "region": "PACIFIC-NE", 
    "type": "SUBMARINE VOLCANO", 
    "longitude": -130.3
  }, 
  {
    "status": "HISTORICAL", 
    "elevation": 1730, 
    "name": "CLEVELAND", 
    "latitude": 52.82, 
    "lastErupCode": "D1", 
    "region": "ALEUTIAN IS", 
    "type": "STRATOVOLCANO", 
    "longitude": -169.95
  }, 
  {
    "status": "HISTORICAL", 
    "elevation": -2400, 
    "name": "COAXIAL SEGMENT", 
    "latitude": 46.52, 
    "lastErupCode": "D1", 
    "region": "PACIFIC-NE", 
    "type": "SUBMARINE VOLCANO", 
    "longitude": -129.58
  }, 
  {
    "status": "HOLOCENE", 
    "elevation": 746, 
    "name": "COATEPEQUE CALDERA", 
    "latitude": 13.87, 
    "lastErupCode": "U", 
    "region": "EL SALVADOR", 
    "type": "CALDERA", 
    "longitude": -89.55
  }, 
  {
    "status": "HOLOCENE", 
    "elevation": 775, 
    "name": "COCHONS", 
    "latitude": -46.1, 
    "lastErupCode": "U", 
    "region": "INDIAN O-S", 
    "type": "STRATOVOLCANO", 
    "longitude": 50.23
  }, 
  {
    "status": "RADIOCARBON", 
    "elevation": 4282, 
    "name": "COFRE DE PEROTE", 
    "latitude": 19.492, 
    "lastErupCode": "D6", 
    "region": "MEXICO", 
    "type": "SHIELD VOLCANO", 
    "longitude": -97.15
  }, 
  {
    "status": "HOLOCENE", 
    "elevation": 5631, 
    "name": "COLACHI", 
    "latitude": -23.23, 
    "lastErupCode": "U", 
    "region": "CHILE-N", 
    "type": "STRATOVOLCANO", 
    "longitude": -67.65
  }, 
  {
    "status": "HOLOCENE", 
    "elevation": 0, 
    "name": "COLEMAN SEAMOUNT", 
    "latitude": -8.83, 
    "lastErupCode": "U", 
    "region": "SOLOMON IS-SW PACIFI", 
    "type": "SUBMARINE VOLCANO", 
    "longitude": 157.17
  }, 
  {
    "status": "HISTORICAL", 
    "elevation": 3850, 
    "name": "COLIMA", 
    "latitude": 19.514, 
    "lastErupCode": "D1", 
    "region": "MEXICO", 
    "type": "STRATOVOLCANOES", 
    "longitude": -103.62
  }, 
  {
    "status": "HOLOCENE?", 
    "elevation": 3876, 
    "name": "COLLUMA", 
    "latitude": -18.5, 
    "lastErupCode": "?", 
    "region": "BOLIVIA", 
    "type": "MAAR", 
    "longitude": -68.07
  }, 
  {
    "status": "HISTORICAL", 
    "elevation": 507, 
    "name": "COLO [UNA UNA]", 
    "latitude": -0.17, 
    "lastErupCode": "D1", 
    "region": "SULAWESI-INDONESIA", 
    "type": "STRATOVOLCANO", 
    "longitude": 121.608
  }, 
  {
    "status": "HOLOCENE?", 
    "elevation": 780, 
    "name": "COMONDU-LA PURISIMA", 
    "latitude": 26.0, 
    "lastErupCode": "?", 
    "region": "MEXICO", 
    "type": "VOLCANIC FIELD", 
    "longitude": -111.92
  }, 
  {
    "status": "HISTORICAL", 
    "elevation": 1700, 
    "name": "CONCEPCION", 
    "latitude": 11.538, 
    "lastErupCode": "D1", 
    "region": "NICARAGUA", 
    "type": "STRATOVOLCANO", 
    "longitude": -85.622
  }, 
  {
    "status": "UNCERTAIN", 
    "elevation": 1250, 
    "name": "CONCHAGUA", 
    "latitude": 13.277, 
    "lastErupCode": "?", 
    "region": "EL SALVADOR", 
    "type": "STRATOVOLCANO", 
    "longitude": -87.853
  }, 
  {
    "status": "HISTORICAL", 
    "elevation": 550, 
    "name": "CONCHAGUITA", 
    "latitude": 13.22, 
    "lastErupCode": "D3", 
    "region": "EL SALVADOR", 
    "type": "STRATOVOLCANO", 
    "longitude": -87.765
  }, 
  {
    "status": "HOLOCENE", 
    "elevation": 6532, 
    "name": "CONDOR", 
    "latitude": -26.62, 
    "lastErupCode": "U", 
    "region": "ARGENTINA", 
    "type": "STRATOVOLCANO", 
    "longitude": -68.35
  }, 
  {
    "status": "HOLOCENE", 
    "elevation": 150, 
    "name": "COOK", 
    "latitude": -54.95, 
    "lastErupCode": "U", 
    "region": "CHILE-S", 
    "type": "LAVA DOMES", 
    "longitude": -70.27
  }, 
  {
    "status": "HISTORICAL", 
    "elevation": 2965, 
    "name": "COPAHUE", 
    "latitude": -37.85, 
    "lastErupCode": "D1", 
    "region": "CHILE-C", 
    "type": "STRATOVOLCANO", 
    "longitude": -71.17
  }, 
  {
    "status": "UNCERTAIN", 
    "elevation": 6052, 
    "name": "COPIAPO", 
    "latitude": -27.3, 
    "lastErupCode": "?", 
    "region": "CHILE-N", 
    "type": "STRATOVOLCANO", 
    "longitude": -69.13
  }, 
  {
    "status": "HOLOCENE", 
    "elevation": 2320, 
    "name": "CORBETTI CALDERA", 
    "latitude": 7.18, 
    "lastErupCode": "U", 
    "region": "ETHIOPIA", 
    "type": "CALDERA", 
    "longitude": 38.43
  }, 
  {
    "status": "HISTORICAL", 
    "elevation": 2300, 
    "name": "CORCOVADO", 
    "latitude": -43.18, 
    "lastErupCode": "D3", 
    "region": "CHILE-S", 
    "type": "STRATOVOLCANO", 
    "longitude": -72.8
  }, 
  {
    "status": "HISTORICAL", 
    "elevation": 1798, 
    "name": "CORDON CAULLE", 
    "latitude": -40.52, 
    "lastErupCode": "D2", 
    "region": "CHILE-C", 
    "type": "FISSURE VENTS", 
    "longitude": -72.2
  }, 
  {
    "status": "HOLOCENE", 
    "elevation": 5623, 
    "name": "CORDON CHALVIRI", 
    "latitude": -23.85, 
    "lastErupCode": "U", 
    "region": "CHILE-N", 
    "type": "STRATOVOLCANOES", 
    "longitude": -67.62
  }, 
  {
    "status": "HOLOCENE", 
    "elevation": 5852, 
    "name": "CORDON DE PUNTAS NEGRAS", 
    "latitude": -23.75, 
    "lastErupCode": "U", 
    "region": "CHILE-N", 
    "type": "STRATOVOLCANOES", 
    "longitude": -67.53
  }, 
  {
    "status": "HOLOCENE", 
    "elevation": 5463, 
    "name": "CORDON DEL AZUFRE", 
    "latitude": -25.33, 
    "lastErupCode": "U", 
    "region": "CHILE-N", 
    "type": "COMPLEX VOLCANO", 
    "longitude": -68.52
  }, 
  {
    "status": "FUMAROLIC", 
    "elevation": 440, 
    "name": "CORONADO", 
    "latitude": 29.08, 
    "lastErupCode": "U", 
    "region": "MEXICO", 
    "type": "STRATOVOLCANO", 
    "longitude": -113.513
  }, 
  {
    "status": "HOLOCENE", 
    "elevation": 6377, 
    "name": "COROPUNA", 
    "latitude": -15.52, 
    "lastErupCode": "U", 
    "region": "PERU", 
    "type": "STRATOVOLCANO", 
    "longitude": -72.65
  }, 
  {
    "status": "HOLOCENE", 
    "elevation": 715, 
    "name": "CORVO", 
    "latitude": 39.67, 
    "lastErupCode": "U", 
    "region": "AZORES", 
    "type": "STRATOVOLCANO", 
    "longitude": -31.07
  }, 
  {
    "status": "HISTORICAL", 
    "elevation": 872, 
    "name": "COSIGUINA", 
    "latitude": 12.98, 
    "lastErupCode": "D3", 
    "region": "NICARAGUA", 
    "type": "STRATOVOLCANO", 
    "longitude": -87.57
  }, 
  {
    "status": "HOLOCENE?", 
    "elevation": 2400, 
    "name": "COSO VOLC FIELD", 
    "latitude": 36.03, 
    "lastErupCode": "?", 
    "region": "US-CALIFORNIA", 
    "type": "LAVA DOMES", 
    "longitude": -117.82
  }, 
  {
    "status": "HISTORICAL", 
    "elevation": 5911, 
    "name": "COTOPAXI", 
    "latitude": -0.677, 
    "lastErupCode": "D2", 
    "region": "ECUADOR", 
    "type": "STRATOVOLCANO", 
    "longitude": -78.436
  }, 
  {
    "status": "RADIOCARBON", 
    "elevation": 2487, 
    "name": "CRATER LAKE", 
    "latitude": 42.93, 
    "lastErupCode": "D7", 
    "region": "US-OREGON", 
    "type": "CALDERA", 
    "longitude": -122.12
  }, 
  {
    "status": "HOLOCENE?", 
    "elevation": 3233, 
    "name": "CRATER MOUNTAIN", 
    "latitude": -6.58, 
    "lastErupCode": "?", 
    "region": "NEW GUINEA", 
    "type": "STRATOVOLCANO", 
    "longitude": 145.08
  }, 
  {
    "status": "RADIOCARBON", 
    "elevation": 2005, 
    "name": "CRATERS OF THE MOON", 
    "latitude": 43.42, 
    "lastErupCode": "D7", 
    "region": "US-IDAHO", 
    "type": "CINDER CONES", 
    "longitude": -113.5
  }, 
  {
    "status": "HOLOCENE", 
    "elevation": 335, 
    "name": "CROW LAGOON", 
    "latitude": 54.7, 
    "lastErupCode": "U", 
    "region": "CANADA", 
    "type": "PYROCLASTIC CONE", 
    "longitude": -130.23
  }, 
  {
    "status": "HOLOCENE", 
    "elevation": 181, 
    "name": "CU-LAO RE GROUP", 
    "latitude": 15.38, 
    "lastErupCode": "U", 
    "region": "SE ASIA", 
    "type": "VOLCANIC FIELD", 
    "longitude": 109.12
  }, 
  {
    "status": "RADIOCARBON", 
    "elevation": 3246, 
    "name": "CUICOCHA", 
    "latitude": 0.308, 
    "lastErupCode": "D7", 
    "region": "ECUADOR", 
    "type": "CALDERA", 
    "longitude": -78.364
  }, 
  {
    "status": "HOLOCENE", 
    "elevation": 1454, 
    "name": "CUILAPA-BARBARENA", 
    "latitude": 14.33, 
    "lastErupCode": "U", 
    "region": "GUATEMALA", 
    "type": "VOLCANIC FIELD", 
    "longitude": -90.4
  }, 
  {
    "status": "HISTORICAL", 
    "elevation": 4764, 
    "name": "CUMBAL", 
    "latitude": 0.98, 
    "lastErupCode": "D2", 
    "region": "COLOMBIA", 
    "type": "STRATOVOLCANO", 
    "longitude": -77.88
  }, 
  {
    "status": "RADIOCARBON", 
    "elevation": 3940, 
    "name": "CUMBRES", 
    "latitude": 19.15, 
    "lastErupCode": "D7", 
    "region": "MEXICO", 
    "type": "STRATOVOLCANO", 
    "longitude": -97.27
  }, 
  {
    "status": "HISTORICAL", 
    "elevation": -33, 
    "name": "CURACOA", 
    "latitude": -15.62, 
    "lastErupCode": "D1", 
    "region": "TONGA-SW PACIFIC", 
    "type": "SUBMARINE VOLCANO", 
    "longitude": -173.67
  }, 
  {
    "status": "UNCERTAIN", 
    "elevation": 137, 
    "name": "CURTIS ISLAND", 
    "latitude": -30.542, 
    "lastErupCode": "?", 
    "region": "KERMADEC IS", 
    "type": "SUBMARINE VOLCANO", 
    "longitude": -178.561
  }, 
  {
    "status": "HOLOCENE", 
    "elevation": 1442, 
    "name": "DABBAHU", 
    "latitude": 12.6, 
    "lastErupCode": "U", 
    "region": "ETHIOPIA", 
    "type": "STRATOVOLCANO", 
    "longitude": 40.48
  }, 
  {
    "status": "HOLOCENE", 
    "elevation": 1302, 
    "name": "DABBAYRA", 
    "latitude": 12.38, 
    "lastErupCode": "U", 
    "region": "ETHIOPIA", 
    "type": "SHIELD VOLCANO", 
    "longitude": 40.07
  }, 
  {
    "status": "HOLOCENE", 
    "elevation": 3800, 
    "name": "DACHT-I-NAVAR GROUP", 
    "latitude": 33.95, 
    "lastErupCode": "U", 
    "region": "AFGHANISTAN", 
    "type": "LAVA DOMES", 
    "longitude": 67.92
  }, 
  {
    "status": "TEPHROCHRONOLOGY", 
    "elevation": 2290, 
    "name": "DAISETSU", 
    "latitude": 43.68, 
    "lastErupCode": "D6", 
    "region": "HOKKAIDO-JAPAN", 
    "type": "STRATOVOLCANOES", 
    "longitude": 142.88
  }, 
  {
    "status": "ANTHROPOLOGY", 
    "elevation": 400, 
    "name": "DAKATAUA", 
    "latitude": -5.056, 
    "lastErupCode": "D3", 
    "region": "NEW BRITAIN-SW PAC", 
    "type": "CALDERA", 
    "longitude": 150.108
  }, 
  {
    "status": "HOLOCENE", 
    "elevation": 613, 
    "name": "DALAFFILLA", 
    "latitude": 13.792, 
    "lastErupCode": "U", 
    "region": "ETHIOPIA", 
    "type": "STRATOVOLCANO", 
    "longitude": 40.55
  }, 
  {
    "status": "HISTORICAL", 
    "elevation": -48, 
    "name": "DALLOL", 
    "latitude": 14.242, 
    "lastErupCode": "D2", 
    "region": "ETHIOPIA", 
    "type": "EXPLOSION CRATERS", 
    "longitude": 40.3
  }, 
  {
    "status": "HISTORICAL", 
    "elevation": 1068, 
    "name": "DAMA ALI", 
    "latitude": 11.28, 
    "lastErupCode": "D5", 
    "region": "ETHIOPIA", 
    "type": "SHIELD VOLCANO", 
    "longitude": 41.63
  }, 
  {
    "status": "HOLOCENE", 
    "elevation": 5670, 
    "name": "DAMAVAND", 
    "latitude": 35.951, 
    "lastErupCode": "U", 
    "region": "IRAN", 
    "type": "STRATOVOLCANO", 
    "longitude": 52.109
  }, 
  {
    "status": "RADIOCARBON", 
    "elevation": 1354, 
    "name": "DANA", 
    "latitude": 55.62, 
    "lastErupCode": "D7", 
    "region": "ALASKA PENINSULA", 
    "type": "STRATOVOLCANO", 
    "longitude": -161.22
  }, 
  {
    "status": "HOLOCENE", 
    "elevation": 1778, 
    "name": "DANAU COMPLEX", 
    "latitude": -6.2, 
    "lastErupCode": "U", 
    "region": "JAVA", 
    "type": "CALDERA", 
    "longitude": 105.97
  }, 
  {
    "status": "HOLOCENE", 
    "elevation": 3329, 
    "name": "DAR-ALAGES", 
    "latitude": 39.7, 
    "lastErupCode": "U", 
    "region": "ARMENIA", 
    "type": "UNKNOWN", 
    "longitude": 45.542
  }, 
  {
    "status": "HOLOCENE", 
    "elevation": 1778, 
    "name": "DARIGANGA VOLC FIELD", 
    "latitude": 45.33, 
    "lastErupCode": "U", 
    "region": "MONGOLIA", 
    "type": "CINDER CONES", 
    "longitude": 114.0
  }, 
  {
    "status": "HOLOCENE", 
    "elevation": 1330, 
    "name": "DARWIN", 
    "latitude": -0.18, 
    "lastErupCode": "D3", 
    "region": "GALAPAGOS", 
    "type": "SHIELD VOLCANO", 
    "longitude": -91.28
  }, 
  {
    "status": "FUMAROLIC", 
    "elevation": 2467, 
    "name": "DAUN", 
    "latitude": -3.38, 
    "lastErupCode": "U", 
    "region": "SUMATRA", 
    "type": "STRATOVOLCANOES", 
    "longitude": 102.37
  }, 
  {
    "status": "HOLOCENE?", 
    "elevation": 328, 
    "name": "DAVIDOF", 
    "latitude": 51.97, 
    "lastErupCode": "?", 
    "region": "ALEUTIAN IS", 
    "type": "STRATOVOLCANO", 
    "longitude": 178.33
  }, 
  {
    "status": "RADIOCARBON", 
    "elevation": 2163, 
    "name": "DAVIS LAKE", 
    "latitude": 43.57, 
    "lastErupCode": "D7", 
    "region": "US-OREGON", 
    "type": "VOLCANIC FIELD", 
    "longitude": -121.82
  }, 
  {
    "status": "HYDRATION RIND", 
    "elevation": 500, 
    "name": "DAWSON STRAIT GROUP", 
    "latitude": -9.62, 
    "lastErupCode": "D6", 
    "region": "D'ENTRECASTEAUX IS", 
    "type": "VOLCANIC FIELD", 
    "longitude": 150.88
  }, 
  {
    "status": "HISTORICAL", 
    "elevation": 576, 
    "name": "DECEPTION ISLAND", 
    "latitude": -62.97, 
    "lastErupCode": "D1", 
    "region": "ANTARCTICA", 
    "type": "CALDERA", 
    "longitude": -60.65
  }, 
  {
    "status": "HOLOCENE", 
    "elevation": 1205, 
    "name": "DEMON", 
    "latitude": 45.5, 
    "lastErupCode": "U", 
    "region": "KURIL IS", 
    "type": "STRATOVOLCANO", 
    "longitude": 148.85
  }, 
  {
    "status": "HISTORICAL", 
    "elevation": 3173, 
    "name": "DEMPO", 
    "latitude": -4.03, 
    "lastErupCode": "D1", 
    "region": "SUMATRA", 
    "type": "STRATOVOLCANO", 
    "longitude": 103.13
  }, 
  {
    "status": "UNCERTAIN", 
    "elevation": 2318, 
    "name": "DENISON", 
    "latitude": 58.42, 
    "lastErupCode": "?", 
    "region": "ALASKA PENINSULA", 
    "type": "STRATOVOLCANO", 
    "longitude": -154.45
  }, 
  {
    "status": "HISTORICAL", 
    "elevation": 3953, 
    "name": "DESCABEZADO GRANDE", 
    "latitude": -35.58, 
    "lastErupCode": "D2", 
    "region": "CHILE-C", 
    "type": "STRATOVOLCANO", 
    "longitude": -70.75
  }, 
  {
    "status": "UNCERTAIN", 
    "elevation": 1954, 
    "name": "DEVILS DESK", 
    "latitude": 58.48, 
    "lastErupCode": "?", 
    "region": "ALASKA PENINSULA", 
    "type": "STRATOVOLCANO", 
    "longitude": -154.3
  }, 
  {
    "status": "HOLOCENE?", 
    "elevation": 1698, 
    "name": "DEVILS GARDEN", 
    "latitude": 43.512, 
    "lastErupCode": "?", 
    "region": "US-OREGON", 
    "type": "VOLCANIC FIELD", 
    "longitude": -120.861
  }, 
  {
    "status": "HOLOCENE", 
    "elevation": 1500, 
    "name": "DGIDA BASIN", 
    "latitude": 50.52, 
    "lastErupCode": "U", 
    "region": "RUSSIA-SE", 
    "type": "CINDER CONES", 
    "longitude": 103.25
  }, 
  {
    "status": "HISTORICAL", 
    "elevation": 3500, 
    "name": "DHAMAR", 
    "latitude": 14.57, 
    "lastErupCode": "D2", 
    "region": "ARABIA-S", 
    "type": "VOLCANIC FIELD", 
    "longitude": 44.67
  }, 
  {
    "status": "FUMAROLIC", 
    "elevation": 861, 
    "name": "DIABLE", 
    "latitude": 15.62, 
    "lastErupCode": "U", 
    "region": "W INDIES", 
    "type": "STRATOVOLCANO", 
    "longitude": -61.45
  }, 
  {
    "status": "HOLOCENE", 
    "elevation": 1430, 
    "name": "DIABLOTINS", 
    "latitude": 15.5, 
    "lastErupCode": "U", 
    "region": "W INDIES", 
    "type": "STRATOVOLCANO", 
    "longitude": -61.42
  }, 
  {
    "status": "HOLOCENE?", 
    "elevation": 1435, 
    "name": "DIAMOND CRATERS", 
    "latitude": 43.1, 
    "lastErupCode": "?", 
    "region": "US-OREGON", 
    "type": "VOLCANIC FIELD", 
    "longitude": -118.75
  }, 
  {
    "status": "HISTORICAL", 
    "elevation": 244, 
    "name": "DIDICAS", 
    "latitude": 19.077, 
    "lastErupCode": "D1", 
    "region": "LUZON-N OF", 
    "type": "COMPOUND VOLCANO", 
    "longitude": 122.202
  }, 
  {
    "status": "HISTORICAL", 
    "elevation": 2565, 
    "name": "DIENG VOLC COMPLEX", 
    "latitude": -7.2, 
    "lastErupCode": "D1", 
    "region": "JAVA", 
    "type": "COMPLEX VOLCANO", 
    "longitude": 109.92
  }, 
  {
    "status": "RADIOCARBON", 
    "elevation": 1070, 
    "name": "DIKY GREBEN", 
    "latitude": 51.43, 
    "lastErupCode": "D6", 
    "region": "KAMCHATKA", 
    "type": "LAVA DOMES", 
    "longitude": 157.0
  }, 
  {
    "status": "HOLOCENE", 
    "elevation": 1151, 
    "name": "DOFEN", 
    "latitude": 9.35, 
    "lastErupCode": "U", 
    "region": "ETHIOPIA", 
    "type": "STRATOVOLCANO", 
    "longitude": 40.13
  }, 
  {
    "status": "HOLOCENE?", 
    "elevation": 3568, 
    "name": "DOMA PEAKS", 
    "latitude": -5.9, 
    "lastErupCode": "?", 
    "region": "NEW GUINEA", 
    "type": "STRATOVOLCANO", 
    "longitude": 143.15
  }, 
  {
    "status": "HOLOCENE?", 
    "elevation": 4709, 
    "name": "DOMUYO", 
    "latitude": -36.63, 
    "lastErupCode": "?", 
    "region": "ARGENTINA", 
    "type": "STRATOVOLCANO", 
    "longitude": -70.42
  }, 
  {
    "status": "HISTORICAL", 
    "elevation": -14, 
    "name": "DON JOAO DE CASTRO BANK", 
    "latitude": 38.23, 
    "lastErupCode": "D4", 
    "region": "AZORES", 
    "type": "SUBMARINE VOLCANO", 
    "longitude": -26.63
  }, 
  {
    "status": "HISTORICAL", 
    "elevation": 4150, 
    "name": "DONA JUANA", 
    "latitude": 1.47, 
    "lastErupCode": "D2", 
    "region": "COLOMBIA", 
    "type": "STRATOVOLCANO", 
    "longitude": -76.92
  }, 
  {
    "status": "RADIOCARBON", 
    "elevation": 2230, 
    "name": "DOTSERO", 
    "latitude": 39.65, 
    "lastErupCode": "D7", 
    "region": "US-COLORADO", 
    "type": "MAAR", 
    "longitude": -107.03
  }, 
  {
    "status": "FUMAROLIC", 
    "elevation": 2140, 
    "name": "DOUGLAS", 
    "latitude": 58.87, 
    "lastErupCode": "U", 
    "region": "ALASKA PENINSULA", 
    "type": "STRATOVOLCANO", 
    "longitude": -153.55
  }, 
  {
    "status": "HISTORICAL", 
    "elevation": 1625, 
    "name": "DUBBI", 
    "latitude": 13.58, 
    "lastErupCode": "D3", 
    "region": "ETHIOPIA", 
    "type": "STRATOVOLCANO", 
    "longitude": 41.808
  }, 
  {
    "status": "HISTORICAL", 
    "elevation": 1185, 
    "name": "DUKONO", 
    "latitude": 1.68, 
    "lastErupCode": "D1", 
    "region": "HALMAHERA-INDONESIA", 
    "type": "COMPLEX VOLCANO", 
    "longitude": 127.88
  }, 
  {
    "status": "HOLOCENE", 
    "elevation": 15, 
    "name": "DUNCAN CANAL", 
    "latitude": 56.5, 
    "lastErupCode": "U", 
    "region": "ALASKA-SE", 
    "type": "UNKNOWN", 
    "longitude": -133.1
  }, 
  {
    "status": "HOLOCENE", 
    "elevation": 2075, 
    "name": "DURANGO VOLC FIELD", 
    "latitude": 24.15, 
    "lastErupCode": "U", 
    "region": "MEXICO", 
    "type": "CINDER CONES", 
    "longitude": -104.45
  }, 
  {
    "status": "HOLOCENE", 
    "elevation": 1506, 
    "name": "DUTTON", 
    "latitude": 55.18, 
    "lastErupCode": "U", 
    "region": "ALASKA PENINSULA", 
    "type": "STRATOVOLCANO", 
    "longitude": -162.27
  }, 
  {
    "status": "HOLOCENE", 
    "elevation": 2155, 
    "name": "DZENZURSKY", 
    "latitude": 53.637, 
    "lastErupCode": "U", 
    "region": "KAMCHATKA", 
    "type": "COMPOUND VOLCANO", 
    "longitude": 158.922
  }, 
  {
    "status": "HISTORICAL", 
    "elevation": 618, 
    "name": "E-SAN", 
    "latitude": 41.8, 
    "lastErupCode": "D3", 
    "region": "HOKKAIDO-JAPAN", 
    "type": "STRATOVOLCANO", 
    "longitude": 141.17
  }, 
  {
    "status": "HOLOCENE?", 
    "elevation": 1652, 
    "name": "EAGLE LAKE FIELD", 
    "latitude": 40.63, 
    "lastErupCode": "?", 
    "region": "US-CALIFORNIA", 
    "type": "FISSURE VENTS", 
    "longitude": -120.83
  }, 
  {
    "status": "HOLOCENE", 
    "elevation": 530, 
    "name": "EASTER ISLAND", 
    "latitude": -27.12, 
    "lastErupCode": "U", 
    "region": "PACIFIC-C", 
    "type": "SHIELD VOLCANOES", 
    "longitude": -109.45
  }, 
  {
    "status": "HISTORICAL", 
    "elevation": -80, 
    "name": "EASTERN GEMINI SEAMOUNT", 
    "latitude": -20.98, 
    "lastErupCode": "D1", 
    "region": "SW PACIFIC", 
    "type": "SUBMARINE VOLCANO", 
    "longitude": 170.28
  }, 
  {
    "status": "HISTORICAL", 
    "elevation": 1156, 
    "name": "EBEKO", 
    "latitude": 50.68, 
    "lastErupCode": "D1", 
    "region": "KURIL IS", 
    "type": "SOMMA VOLCANO", 
    "longitude": 156.02
  }, 
  {
    "status": "HISTORICAL", 
    "elevation": 2124, 
    "name": "EBULOBO", 
    "latitude": -8.808, 
    "lastErupCode": "D1", 
    "region": "LESSER SUNDA IS", 
    "type": "STRATOVOLCANO", 
    "longitude": 121.18
  }, 
  {
    "status": "HOLOCENE", 
    "elevation": 2856, 
    "name": "EBURRU", 
    "latitude": -0.63, 
    "lastErupCode": "U", 
    "region": "AFRICA-E", 
    "type": "COMPLEX VOLCANO", 
    "longitude": 36.23
  }, 
  {
    "status": "HOLOCENE", 
    "elevation": 790, 
    "name": "ECUADOR", 
    "latitude": -0.02, 
    "lastErupCode": "U", 
    "region": "GALAPAGOS", 
    "type": "SHIELD VOLCANO", 
    "longitude": -91.546
  }, 
  {
    "status": "RADIOCARBON", 
    "elevation": 976, 
    "name": "EDGECUMBE", 
    "latitude": 57.05, 
    "lastErupCode": "D7", 
    "region": "ALASKA-SE", 
    "type": "STRATOVOLCANOES", 
    "longitude": -135.75
  }, 
  {
    "status": "RADIOCARBON", 
    "elevation": 2786, 
    "name": "EDZIZA", 
    "latitude": 57.72, 
    "lastErupCode": "D6", 
    "region": "CANADA", 
    "type": "STRATOVOLCANO", 
    "longitude": -130.63
  }, 
  {
    "status": "HOLOCENE", 
    "elevation": 1046, 
    "name": "EGGELLA", 
    "latitude": 56.57, 
    "lastErupCode": "U", 
    "region": "KAMCHATKA", 
    "type": "SHIELD VOLCANO", 
    "longitude": 158.52
  }, 
  {
    "status": "RADIOCARBON", 
    "elevation": 2518, 
    "name": "EGMONT", 
    "latitude": -39.3, 
    "lastErupCode": "D4", 
    "region": "NEW ZEALAND", 
    "type": "STRATOVOLCANO", 
    "longitude": 174.07
  }, 
  {
    "status": "HISTORICAL", 
    "elevation": 1703, 
    "name": "EGON", 
    "latitude": -8.67, 
    "lastErupCode": "D2", 
    "region": "LESSER SUNDA IS", 
    "type": "STRATOVOLCANO", 
    "longitude": 122.45
  }, 
  {
    "status": "HISTORICAL", 
    "elevation": 1170, 
    "name": "EKARMA", 
    "latitude": 48.958, 
    "lastErupCode": "D1", 
    "region": "KURIL IS", 
    "type": "STRATOVOLCANO", 
    "longitude": 153.93
  }, 
  {
    "status": "TEPHROCHRONOLOGY", 
    "elevation": 5633, 
    "name": "ELBRUS", 
    "latitude": 43.33, 
    "lastErupCode": "D6", 
    "region": "RUSSIA-SW", 
    "type": "STRATOVOLCANO", 
    "longitude": 42.45
  }, 
  {
    "status": "HOLOCENE", 
    "elevation": 2126, 
    "name": "ELMENTEITA BADLANDS", 
    "latitude": -0.52, 
    "lastErupCode": "U", 
    "region": "AFRICA-E", 
    "type": "PYROCLASTIC CONES", 
    "longitude": 36.27
  }, 
  {
    "status": "HOLOCENE", 
    "elevation": 1381, 
    "name": "ELOVSKY", 
    "latitude": 57.53, 
    "lastErupCode": "U", 
    "region": "KAMCHATKA", 
    "type": "SHIELD VOLCANOES", 
    "longitude": 160.53
  }, 
  {
    "status": "HOLOCENE", 
    "elevation": 1465, 
    "name": "EMMONS LAKE", 
    "latitude": 55.33, 
    "lastErupCode": "U", 
    "region": "ALASKA PENINSULA", 
    "type": "CALDERA", 
    "longitude": -162.07
  }, 
  {
    "status": "UNCERTAIN", 
    "elevation": -2850, 
    "name": "EMPEROR OF CHINA", 
    "latitude": -6.62, 
    "lastErupCode": "?", 
    "region": "BANDA SEA", 
    "type": "SUBMARINE VOLCANO ?", 
    "longitude": 124.22
  }, 
  {
    "status": "RADIOCARBON", 
    "elevation": 1328, 
    "name": "EMURUANGOGOLAK", 
    "latitude": 1.5, 
    "lastErupCode": "D2", 
    "region": "AFRICA-E", 
    "type": "SHIELD VOLCANO", 
    "longitude": 36.33
  }, 
  {
    "status": "HISTORICAL", 
    "elevation": 833, 
    "name": "EPI", 
    "latitude": -16.68, 
    "lastErupCode": "D1", 
    "region": "VANUATU-SW PACIFIC", 
    "type": "STRATOVOLCANOES", 
    "longitude": 168.37
  }, 
  {
    "status": "HOLOCENE", 
    "elevation": 3916, 
    "name": "ERCIYES DAGI", 
    "latitude": 38.52, 
    "lastErupCode": "U", 
    "region": "TURKEY", 
    "type": "STRATOVOLCANO", 
    "longitude": 35.48
  }, 
  {
    "status": "HISTORICAL", 
    "elevation": 3794, 
    "name": "EREBUS", 
    "latitude": -77.53, 
    "lastErupCode": "D1", 
    "region": "ANTARCTICA", 
    "type": "STRATOVOLCANO", 
    "longitude": 167.17
  }, 
  {
    "status": "HISTORICAL", 
    "elevation": 613, 
    "name": "ERTA ALE", 
    "latitude": 13.6, 
    "lastErupCode": "D1", 
    "region": "ETHIOPIA", 
    "type": "SHIELD VOLCANO", 
    "longitude": 40.67
  }, 
  {
    "status": "HISTORICAL", 
    "elevation": 979, 
    "name": "ES SAFA", 
    "latitude": 33.08, 
    "lastErupCode": "D3", 
    "region": "SYRIA", 
    "type": "VOLCANIC FIELD", 
    "longitude": 37.15
  }, 
  {
    "status": "HOLOCENE", 
    "elevation": 4000, 
    "name": "ESCALA", 
    "latitude": -21.6, 
    "lastErupCode": "U", 
    "region": "BOLIVIA", 
    "type": "LAVA DOME", 
    "longitude": -66.88
  }, 
  {
    "status": "HOLOCENE", 
    "elevation": 5447, 
    "name": "ESCORIAL", 
    "latitude": -25.08, 
    "lastErupCode": "U", 
    "region": "CHILE-N", 
    "type": "STRATOVOLCANO", 
    "longitude": -68.37
  }, 
  {
    "status": "HISTORICAL", 
    "elevation": 1760, 
    "name": "ESJUFJOLL", 
    "latitude": 64.27, 
    "lastErupCode": "D2", 
    "region": "ICELAND-SE", 
    "type": "STRATOVOLCANO", 
    "longitude": -16.65
  }, 
  {
    "status": "FUMAROLIC", 
    "elevation": -43, 
    "name": "ESMERALDA BANK", 
    "latitude": 15.0, 
    "lastErupCode": "U", 
    "region": "MARIANA IS-C PACIFIC", 
    "type": "SUBMARINE VOLCANO", 
    "longitude": 145.25
  }, 
  {
    "status": "TEPHROCHRONOLOGY", 
    "elevation": 243, 
    "name": "ESPENBERG", 
    "latitude": 66.35, 
    "lastErupCode": "D7", 
    "region": "ALASKA-W", 
    "type": "VOLCANIC FIELD", 
    "longitude": -164.33
  }, 
  {
    "status": "HOLOCENE?", 
    "elevation": 1090, 
    "name": "EST", 
    "latitude": -46.43, 
    "lastErupCode": "?", 
    "region": "INDIAN O-S", 
    "type": "STRATOVOLCANO", 
    "longitude": 52.2
  }, 
  {
    "status": "HOLOCENE?", 
    "elevation": 899, 
    "name": "ESTELI", 
    "latitude": 13.17, 
    "lastErupCode": "?", 
    "region": "NICARAGUA", 
    "type": "FISSURE VENTS", 
    "longitude": -86.4
  }, 
  {
    "status": "HISTORICAL", 
    "elevation": 3350, 
    "name": "ETNA", 
    "latitude": 37.734, 
    "lastErupCode": "D1", 
    "region": "ITALY", 
    "type": "STRATOVOLCANO", 
    "longitude": 15.004
  }, 
  {
    "status": "HISTORICAL", 
    "elevation": 1666, 
    "name": "EYJAFJOLL", 
    "latitude": 63.63, 
    "lastErupCode": "D3", 
    "region": "ICELAND-S", 
    "type": "STRATOVOLCANO", 
    "longitude": -19.62
  }, 
  {
    "status": "HISTORICAL", 
    "elevation": -17, 
    "name": "FALCON ISLAND", 
    "latitude": -20.32, 
    "lastErupCode": "D2", 
    "region": "TONGA-SW PACIFIC", 
    "type": "SUBMARINE VOLCANO", 
    "longitude": -175.42
  }, 
  {
    "status": "HOLOCENE", 
    "elevation": 5890, 
    "name": "FALSO AZUFRE", 
    "latitude": -26.8, 
    "lastErupCode": "U", 
    "region": "CHILE-N", 
    "type": "COMPLEX VOLCANO", 
    "longitude": -68.37
  }, 
  {
    "status": "HISTORICAL", 
    "elevation": 360, 
    "name": "FARALLON DE PAJAROS", 
    "latitude": 20.53, 
    "lastErupCode": "D1", 
    "region": "MARIANA IS-C PACIFIC", 
    "type": "STRATOVOLCANO", 
    "longitude": 144.9
  }, 
  {
    "status": "HISTORICAL", 
    "elevation": 1043, 
    "name": "FAYAL", 
    "latitude": 38.6, 
    "lastErupCode": "D2", 
    "region": "AZORES", 
    "type": "STRATOVOLCANO", 
    "longitude": -28.73
  }, 
  {
    "status": "HOLOCENE", 
    "elevation": 965, 
    "name": "FEDOTYCH", 
    "latitude": 57.13, 
    "lastErupCode": "U", 
    "region": "KAMCHATKA", 
    "type": "SHIELD VOLCANO", 
    "longitude": 160.4
  }, 
  {
    "status": "HISTORICAL", 
    "elevation": 2007, 
    "name": "FENTALE", 
    "latitude": 8.975, 
    "lastErupCode": "D3", 
    "region": "ETHIOPIA", 
    "type": "STRATOVOLCANO", 
    "longitude": 39.93
  }, 
  {
    "status": "HISTORICAL", 
    "elevation": 1495, 
    "name": "FERNANDINA", 
    "latitude": -0.37, 
    "lastErupCode": "D1", 
    "region": "GALAPAGOS", 
    "type": "SHIELD VOLCANO", 
    "longitude": -91.55
  }, 
  {
    "status": "HOLOCENE", 
    "elevation": 5498, 
    "name": "FIRURA", 
    "latitude": -15.23, 
    "lastErupCode": "U", 
    "region": "PERU", 
    "type": "STRATOVOLCANOES", 
    "longitude": -72.63
  }, 
  {
    "status": "HISTORICAL", 
    "elevation": 1094, 
    "name": "FISHER", 
    "latitude": 54.67, 
    "lastErupCode": "D3", 
    "region": "ALEUTIAN IS", 
    "type": "STRATOVOLCANO", 
    "longitude": -164.35
  }, 
  {
    "status": "HOLOCENE", 
    "elevation": 640, 
    "name": "FLOREANA", 
    "latitude": -1.3, 
    "lastErupCode": "U", 
    "region": "GALAPAGOS", 
    "type": "SHIELD VOLCANO", 
    "longitude": -90.45
  }, 
  {
    "status": "RADIOCARBON", 
    "elevation": 915, 
    "name": "FLORES", 
    "latitude": 39.4, 
    "lastErupCode": "D7", 
    "region": "AZORES", 
    "type": "STRATOVOLCANO", 
    "longitude": -31.17
  }, 
  {
    "status": "HOLOCENE", 
    "elevation": 1600, 
    "name": "FLORES", 
    "latitude": 14.3, 
    "lastErupCode": "U", 
    "region": "GUATEMALA", 
    "type": "VOLCANIC FIELD", 
    "longitude": -90.0
  }, 
  {
    "status": "HISTORICAL", 
    "elevation": 2829, 
    "name": "FOGO", 
    "latitude": 14.95, 
    "lastErupCode": "D1", 
    "region": "CAPE VERDE IS", 
    "type": "STRATOVOLCANO", 
    "longitude": -24.35
  }, 
  {
    "status": "HISTORICAL", 
    "elevation": 200, 
    "name": "FONUALEI", 
    "latitude": -18.02, 
    "lastErupCode": "D2", 
    "region": "TONGA-SW PACIFIC", 
    "type": "STRATOVOLCANO", 
    "longitude": -174.325
  }, 
  {
    "status": "HOLOCENE", 
    "elevation": 1524, 
    "name": "FORT PORTAL FIELD", 
    "latitude": 0.7, 
    "lastErupCode": "U", 
    "region": "AFRICA-C", 
    "type": "TUFF CONES", 
    "longitude": 30.25
  }, 
  {
    "status": "HOLOCENE", 
    "elevation": 1239, 
    "name": "FORT SELKIRK", 
    "latitude": 62.93, 
    "lastErupCode": "U", 
    "region": "CANADA", 
    "type": "VOLCANIC FIELD", 
    "longitude": -137.38
  }, 
  {
    "status": "HOLOCENE?", 
    "elevation": 1501, 
    "name": "FOUR CRATERS LAVA FIELD", 
    "latitude": 43.361, 
    "lastErupCode": "?", 
    "region": "US-OREGON", 
    "type": "VOLCANIC FIELD", 
    "longitude": -120.669
  }, 
  {
    "status": "HISTORICAL", 
    "elevation": 2631, 
    "name": "FOURNAISE", 
    "latitude": -21.229, 
    "lastErupCode": "D1", 
    "region": "INDIAN O-W", 
    "type": "SHIELD VOLCANO", 
    "longitude": 55.713
  }, 
  {
    "status": "UNCERTAIN", 
    "elevation": 2104, 
    "name": "FOURPEAKED", 
    "latitude": 58.77, 
    "lastErupCode": "?", 
    "region": "ALASKA PENINSULA", 
    "type": "STRATOVOLCANO", 
    "longitude": -153.68
  }, 
  {
    "status": "TEPHROCHRONOLOGY", 
    "elevation": 939, 
    "name": "FREMRINAMUR", 
    "latitude": 65.43, 
    "lastErupCode": "D7", 
    "region": "ICELAND-NE", 
    "type": "STRATOVOLCANO", 
    "longitude": -16.65
  }, 
  {
    "status": "HOLOCENE", 
    "elevation": 1920, 
    "name": "FROSTY", 
    "latitude": 55.07, 
    "lastErupCode": "U", 
    "region": "ALASKA PENINSULA", 
    "type": "STRATOVOLCANOES", 
    "longitude": -162.82
  }, 
  {
    "status": "HISTORICAL", 
    "elevation": 3763, 
    "name": "FUEGO", 
    "latitude": 14.473, 
    "lastErupCode": "D1", 
    "region": "GUATEMALA", 
    "type": "STRATOVOLCANO", 
    "longitude": -90.88
  }, 
  {
    "status": "HOLOCENE", 
    "elevation": 529, 
    "name": "FUERTEVENTURA", 
    "latitude": 28.358, 
    "lastErupCode": "U", 
    "region": "CANARY IS", 
    "type": "FISSURE VENTS", 
    "longitude": -14.02
  }, 
  {
    "status": "HISTORICAL", 
    "elevation": 3776, 
    "name": "FUJI", 
    "latitude": 35.35, 
    "lastErupCode": "D4", 
    "region": "HONSHU-JAPAN", 
    "type": "STRATOVOLCANO", 
    "longitude": 138.73
  }, 
  {
    "status": "HISTORICAL", 
    "elevation": -217, 
    "name": "FUKUJIN", 
    "latitude": 21.925, 
    "lastErupCode": "D1", 
    "region": "VOLCANO IS-JAPAN", 
    "type": "SUBMARINE VOLCANO", 
    "longitude": 143.442
  }, 
  {
    "status": "HISTORICAL", 
    "elevation": -14, 
    "name": "FUKUTOKU-OKANOBA", 
    "latitude": 24.28, 
    "lastErupCode": "D1", 
    "region": "VOLCANO IS-JAPAN", 
    "type": "SUBMARINE VOLCANO", 
    "longitude": 141.52
  }, 
  {
    "status": "HISTORICAL", 
    "elevation": 805, 
    "name": "FURNAS", 
    "latitude": 37.77, 
    "lastErupCode": "D5", 
    "region": "AZORES", 
    "type": "STRATOVOLCANO", 
    "longitude": -25.32
  }, 
  {
    "status": "HISTORICAL", 
    "elevation": 1772, 
    "name": "FUSS PEAK", 
    "latitude": 50.27, 
    "lastErupCode": "D3", 
    "region": "KURIL IS", 
    "type": "STRATOVOLCANO", 
    "longitude": 155.25
  }, 
  {
    "status": "HOLOCENE", 
    "elevation": 1459, 
    "name": "GABILLEMA", 
    "latitude": 11.08, 
    "lastErupCode": "U", 
    "region": "ETHIOPIA", 
    "type": "STRATOVOLCANO", 
    "longitude": 41.27
  }, 
  {
    "status": "HOLOCENE", 
    "elevation": 287, 
    "name": "GADA ALE", 
    "latitude": 13.975, 
    "lastErupCode": "U", 
    "region": "ETHIOPIA", 
    "type": "STRATOVOLCANO", 
    "longitude": 40.408
  }, 
  {
    "status": "HISTORICAL", 
    "elevation": -2430, 
    "name": "GALAPAGOS RIFT", 
    "latitude": 0.792, 
    "lastErupCode": "D1", 
    "region": "PACIFIC-E", 
    "type": "SUBMARINE VOLCANO", 
    "longitude": -86.15
  }, 
  {
    "status": "HISTORICAL", 
    "elevation": 4276, 
    "name": "GALERAS", 
    "latitude": 1.22, 
    "lastErupCode": "D1", 
    "region": "COLOMBIA", 
    "type": "COMPLEX VOLCANO", 
    "longitude": -77.37
  }, 
  {
    "status": "HOLOCENE?", 
    "elevation": 1000, 
    "name": "GALLEGO", 
    "latitude": -9.35, 
    "lastErupCode": "?", 
    "region": "SOLOMON IS-SW PACIFI", 
    "type": "VOLCANIC FIELD", 
    "longitude": 159.73
  }, 
  {
    "status": "HISTORICAL", 
    "elevation": 2168, 
    "name": "GALUNGGUNG", 
    "latitude": -7.25, 
    "lastErupCode": "D1", 
    "region": "JAVA", 
    "type": "STRATOVOLCANO", 
    "longitude": 108.05
  }, 
  {
    "status": "HISTORICAL", 
    "elevation": 1715, 
    "name": "GAMALAMA", 
    "latitude": 0.8, 
    "lastErupCode": "D1", 
    "region": "HALMAHERA-INDONESIA", 
    "type": "STRATOVOLCANOES", 
    "longitude": 127.325
  }, 
  {
    "status": "HOLOCENE", 
    "elevation": 2576, 
    "name": "GAMCHEN", 
    "latitude": 54.973, 
    "lastErupCode": "U", 
    "region": "KAMCHATKA", 
    "type": "COMPLEX VOLCANO", 
    "longitude": 160.702
  }, 
  {
    "status": "HISTORICAL", 
    "elevation": 1635, 
    "name": "GAMKONORA", 
    "latitude": 1.375, 
    "lastErupCode": "D1", 
    "region": "HALMAHERA-INDONESIA", 
    "type": "STRATOVOLCANO", 
    "longitude": 127.52
  }, 
  {
    "status": "PLEISTOCENE-FUMAROLIC", 
    "elevation": 1000, 
    "name": "GARBES", 
    "latitude": 11.42, 
    "lastErupCode": "Q", 
    "region": "DJIBOUTI", 
    "type": "FUMAROLE FIELD", 
    "longitude": 42.2
  }, 
  {
    "status": "HOLOCENE", 
    "elevation": 564, 
    "name": "GARBUNA GROUP", 
    "latitude": -5.45, 
    "lastErupCode": "U", 
    "region": "NEW BRITAIN-SW PAC", 
    "type": "STRATOVOLCANOES", 
    "longitude": 150.03
  }, 
  {
    "status": "HISTORICAL", 
    "elevation": 1573, 
    "name": "GARELOI", 
    "latitude": 51.78, 
    "lastErupCode": "D1", 
    "region": "ALEUTIAN IS", 
    "type": "STRATOVOLCANO", 
    "longitude": -178.8
  }, 
  {
    "status": "HOLOCENE", 
    "elevation": 2316, 
    "name": "GARIBALDI LAKE", 
    "latitude": 49.92, 
    "lastErupCode": "U", 
    "region": "CANADA", 
    "type": "VOLCANIC FIELD", 
    "longitude": -123.03
  }, 
  {
    "status": "RADIOCARBON", 
    "elevation": 2678, 
    "name": "GARIBALDI", 
    "latitude": 49.85, 
    "lastErupCode": "D7", 
    "region": "CANADA", 
    "type": "STRATOVOLCANO", 
    "longitude": -123.0
  }, 
  {
    "status": "HOLOCENE", 
    "elevation": 368, 
    "name": "GAROVE", 
    "latitude": -4.692, 
    "lastErupCode": "U", 
    "region": "NEW BRITAIN-SW PAC", 
    "type": "STRATOVOLCANO", 
    "longitude": 149.5
  }, 
  {
    "status": "HOLOCENE?", 
    "elevation": 565, 
    "name": "GARUA HARBOUR", 
    "latitude": -5.269, 
    "lastErupCode": "?", 
    "region": "NEW BRITAIN-SW PAC", 
    "type": "VOLCANIC FIELD", 
    "longitude": 150.088
  }, 
  {
    "status": "HISTORICAL", 
    "elevation": 797, 
    "name": "GAUA", 
    "latitude": -14.27, 
    "lastErupCode": "D1", 
    "region": "VANUATU-SW PACIFIC", 
    "type": "STRATOVOLCANO", 
    "longitude": 167.5
  }, 
  {
    "status": "HOLOCENE", 
    "elevation": 1984, 
    "name": "GEDAMSA CALDERA", 
    "latitude": 8.35, 
    "lastErupCode": "U", 
    "region": "ETHIOPIA", 
    "type": "CALDERA", 
    "longitude": 39.18
  }, 
  {
    "status": "HISTORICAL", 
    "elevation": 2958, 
    "name": "GEDE", 
    "latitude": -6.78, 
    "lastErupCode": "D2", 
    "region": "JAVA", 
    "type": "STRATOVOLCANO", 
    "longitude": 106.98
  }, 
  {
    "status": "HOLOCENE", 
    "elevation": 64, 
    "name": "GENOVESA", 
    "latitude": 0.32, 
    "lastErupCode": "U", 
    "region": "GALAPAGOS", 
    "type": "SHIELD VOLCANO", 
    "longitude": -89.958
  }, 
  {
    "status": "HOLOCENE", 
    "elevation": 1170, 
    "name": "GEODESISTOY", 
    "latitude": 56.33, 
    "lastErupCode": "U", 
    "region": "KAMCHATKA", 
    "type": "SHIELD VOLCANO", 
    "longitude": 158.67
  }, 
  {
    "status": "HISTORICAL", 
    "elevation": 2885, 
    "name": "GEUREUDONG", 
    "latitude": 4.813, 
    "lastErupCode": "D2", 
    "region": "SUMATRA", 
    "type": "STRATOVOLCANOES", 
    "longitude": 96.82
  }, 
  {
    "status": "HOLOCENE", 
    "elevation": 0, 
    "name": "GIREKOL", 
    "latitude": 39.17, 
    "lastErupCode": "U", 
    "region": "TURKEY", 
    "type": "UNKNOWN", 
    "longitude": 43.33
  }, 
  {
    "status": "TEPHROCHRONOLOGY", 
    "elevation": 3213, 
    "name": "GLACIER PEAK", 
    "latitude": 48.112, 
    "lastErupCode": "D4", 
    "region": "US-WASHINGTON", 
    "type": "STRATOVOLCANO", 
    "longitude": -121.113
  }, 
  {
    "status": "HOLOCENE", 
    "elevation": 3500, 
    "name": "GLORIA", 
    "latitude": 19.33, 
    "lastErupCode": "U", 
    "region": "MEXICO", 
    "type": "VOLCANIC FIELD", 
    "longitude": -97.25
  }, 
  {
    "status": "HOLOCENE", 
    "elevation": 858, 
    "name": "GOLAYA", 
    "latitude": 52.263, 
    "lastErupCode": "U", 
    "region": "KAMCHATKA", 
    "type": "STRATOVOLCANO", 
    "longitude": 157.787
  }, 
  {
    "status": "TEPHROCHRONOLOGY", 
    "elevation": 2886, 
    "name": "GOLDEN TROUT CREEK", 
    "latitude": 36.358, 
    "lastErupCode": "D7", 
    "region": "US-CALIFORNIA", 
    "type": "VOLCANIC FIELD", 
    "longitude": -118.32
  }, 
  {
    "status": "HOLOCENE?", 
    "elevation": 442, 
    "name": "GOLETS-TORNYI GROUP", 
    "latitude": 45.25, 
    "lastErupCode": "?", 
    "region": "KURIL IS", 
    "type": "PYROCLASTIC CONES", 
    "longitude": 148.35
  }, 
  {
    "status": "HOLOCENE", 
    "elevation": 2143, 
    "name": "GOLLU DAG", 
    "latitude": 38.25, 
    "lastErupCode": "U", 
    "region": "TURKEY", 
    "type": "LAVA DOME", 
    "longitude": 34.57
  }, 
  {
    "status": "HISTORICAL", 
    "elevation": 541, 
    "name": "GOLOVNIN", 
    "latitude": 43.85, 
    "lastErupCode": "D3", 
    "region": "KURIL IS", 
    "type": "CALDERA", 
    "longitude": 145.53
  }, 
  {
    "status": "HOLOCENE", 
    "elevation": 220, 
    "name": "GOODENOUGH", 
    "latitude": -9.48, 
    "lastErupCode": "U", 
    "region": "D'ENTRECASTEAUX IS", 
    "type": "VOLCANIC FIELD", 
    "longitude": 150.35
  }, 
  {
    "status": "HOLOCENE", 
    "elevation": 2755, 
    "name": "GORDON", 
    "latitude": 62.13, 
    "lastErupCode": "U", 
    "region": "ALASKA-E", 
    "type": "CINDER CONES", 
    "longitude": -143.08
  }, 
  {
    "status": "HISTORICAL", 
    "elevation": 1829, 
    "name": "GORELY", 
    "latitude": 52.558, 
    "lastErupCode": "D1", 
    "region": "KAMCHATKA", 
    "type": "CALDERA", 
    "longitude": 158.03
  }, 
  {
    "status": "HISTORICAL", 
    "elevation": 891, 
    "name": "GORIASCHAIA SOPKA", 
    "latitude": 46.83, 
    "lastErupCode": "D2", 
    "region": "KURIL IS", 
    "type": "STRATOVOLCANO", 
    "longitude": 151.75
  }, 
  {
    "status": "HOLOCENE", 
    "elevation": 2125, 
    "name": "GORNY INSTITUTE", 
    "latitude": 57.33, 
    "lastErupCode": "U", 
    "region": "KAMCHATKA", 
    "type": "STRATOVOLCANO", 
    "longitude": 160.2
  }, 
  {
    "status": "HOLOCENE", 
    "elevation": 402, 
    "name": "GRACIOSA", 
    "latitude": 39.02, 
    "lastErupCode": "U", 
    "region": "AZORES", 
    "type": "STRATOVOLCANO", 
    "longitude": -27.97
  }, 
  {
    "status": "RADIOCARBON", 
    "elevation": 1950, 
    "name": "GRAN CANARIA", 
    "latitude": 28.0, 
    "lastErupCode": "D7", 
    "region": "CANARY IS", 
    "type": "FISSURE VENTS", 
    "longitude": -15.58
  }, 
  {
    "status": "HISTORICAL", 
    "elevation": 1740, 
    "name": "GREAT SITKIN", 
    "latitude": 52.08, 
    "lastErupCode": "D1", 
    "region": "ALEUTIAN IS", 
    "type": "STRATOVOLCANO", 
    "longitude": -176.13
  }, 
  {
    "status": "HOLOCENE", 
    "elevation": 2317, 
    "name": "GRIGGS", 
    "latitude": 58.35, 
    "lastErupCode": "U", 
    "region": "ALASKA PENINSULA", 
    "type": "STRATOVOLCANO", 
    "longitude": -155.1
  }, 
  {
    "status": "HOLOCENE", 
    "elevation": 1087, 
    "name": "GRILLE", 
    "latitude": -11.47, 
    "lastErupCode": "U", 
    "region": "INDIAN O-W", 
    "type": "SHIELD VOLCANO", 
    "longitude": 43.33
  },